{"type":"FeatureCollection","features":[{"type":"Feature","geometry":{"type":"Point","coordinates":[106.677986383438,10.8797100979598]},"properties":{"id":"5a6065c58576340017d06615","camStatus":"NOT_IMAGE","displayName":"Tô Ngọc Vân - TX25"}},{"type":"Feature","geometry":{"type":"Point","coordinates":[106.620351076126,10.7265671915496]},"properties":{"id":"56de42f611f398ec0c481299","camStatus":"NOT_IMAGE","displayName":"Võ Văn Kiệt - An Dương Vương 2"}},{"type":"Feature","geometry":{"type":"Point","coordinates":[106.686397790909,10.8610818827294]},"properties":{"id":"595dc29c3dcfc400106f2894","camStatus":"NOT_IMAGE","displayName":"Quốc lộ 1 - Rạch Láng Le 1"}},{"type":"Feature","geometry":{"type":"Point","coordinates":[106.686521172523,10.8243119827038]},"properties":{"id":"5a605f828576340017d06608","camStatus":"NOT_IMAGE","displayName":"Nguyễn Thái Sơn - Nguyễn Văn Nghi 1"}},{"type":"Feature","geometry":{"type":"Point","coordinates":[106.704602,10.781944]},"properties":{"id":"5deb576d1dc17d7c5515ad15","camStatus":"NOT_IMAGE","displayName":"Lý Tự Trọng - Chu Mạnh Trinh"}},{"type":"Feature","geometry":{"type":"Point","coordinates":[106.664902567863,10.8129465937096]},"properties":{"id":"5b8b2323ca057700116405d0","camStatus":"UP","displayName":"Trường Sơn - Ga Quốc Nội 2"}},{"type":"Feature","geometry":{"type":"Point","coordinates":[106.670830249786,10.7697784337206]},"properties":{"id":"63ae7a50bfd3d90017e8f2b2","camStatus":"UP","displayName":"Ba Tháng Hai – Sư Vạn Hạnh"}},{"type":"Feature","geometry":{"type":"Point","coordinates":[106.696482896805,10.8019970541825]},"properties":{"id":"587ee0ecb807da0011e33d50","camStatus":"UP","displayName":"Phan Đăng Lưu - Lê Văn Duyệt"}},{"type":"Feature","geometry":{"type":"Point","coordinates":[106.677197813988,10.751960277381]},"properties":{"id":"56de42f611f398ec0c48128f","camStatus":"UP","displayName":"Võ Văn Kiệt - Huỳnh Mẫn Đạt"}},{"type":"Feature","geometry":{"type":"Point","coordinates":[106.677948832512,10.794472307568]},"properties":{"id":"58b571c817139d0010f35d5d","camStatus":"UP","displayName":"Nguyễn Văn Trỗi - Trần Huy Liệu"}},{"type":"Feature","geometry":{"type":"Point","coordinates":[106.737660169601,10.7052043577961]},"properties":{"id":"63bd1f21bfd3d90017ec3d04","camStatus":"UP","displayName":"Huỳnh Tấn Phát - Phạm Hữu Lầu"}},{"type":"Feature","geometry":{"type":"Point","coordinates":[106.672879457474,10.8079619154301]},"properties":{"id":"58df4d95dc195800111e04b9","camStatus":"UP","displayName":"Phổ Quang - Hoàng Minh Giám"}},{"type":"Feature","geometry":{"type":"Point","coordinates":[106.702351570129,10.6885895362911]},"properties":{"id":"591c6552a6bfb5001194009a","camStatus":"UP","displayName":"Cầu Long Kiểng (Long An)"}},{"type":"Feature","geometry":{"type":"Point","coordinates":[106.654415130615,10.8619248135124]},"properties":{"id":"595dd8463dcfc400106f28b2","camStatus":"NOT_IMAGE","displayName":"Quốc lộ 1 - Đường Lê Thị Riêng 2"}},{"type":"Feature","geometry":{"type":"Point","coordinates":[106.671452522278,10.7918902432446]},"properties":{"id":"5d8cd4ee766c880017188946","camStatus":"NOT_IMAGE","displayName":"Lê Văn Sỹ - Huỳnh Văn Bánh"}},{"type":"Feature","geometry":{"type":"Point","coordinates":[106.7367374897,10.7409610852775]},"properties":{"id":"5a8269c45058170011f6eae4","camStatus":"UP","displayName":"Cầu Phú Mỹ (Q7)"}},{"type":"Feature","geometry":{"type":"Point","coordinates":[106.670079231262,10.7503686605855]},"properties":{"id":"56de42f611f398ec0c481297","camStatus":"UP","displayName":"Võ Văn Kiệt - Nguyễn Tri Phương 2"}},{"type":"Feature","geometry":{"type":"Point","coordinates":[106.68367266655,10.7519444666594]},"properties":{"id":"5822adbbedeb6c0012a2d65f","camStatus":"UP","displayName":"Võ Văn Kiệt - Cầu Chữ Y 1"}},{"type":"Feature","geometry":{"type":"Point","coordinates":[106.693720221519,10.7866311946675]},"properties":{"id":"5deb576d1dc17d7c5515ad00","camStatus":"NOT_IMAGE","displayName":"Điện Biên Phủ - Hai Bà Trưng"}},{"type":"Feature","geometry":{"type":"Point","coordinates":[106.695774793625,10.7917743133057]},"properties":{"id":"5a823e425058170011f6eaa4","camStatus":"UP","displayName":"Đinh Tiên Hoàng - Võ Thị Sáu 1"}},{"type":"Feature","geometry":{"type":"Point","coordinates":[106.70635342598,10.7710748334425]},"properties":{"id":"649da72ca6068200171a6dbb","camStatus":"UP","displayName":"Tôn Đức Thắng - Cầu Khánh Hội"}},{"type":"Feature","geometry":{"type":"Point","coordinates":[106.696085929871,10.7956526724414]},"properties":{"id":"63b65fd8bfd3d90017eaa461","camStatus":"UP","displayName":"Lê Văn Duyệt - Vũ Huy Tấn"}},{"type":"Feature","geometry":{"type":"Point","coordinates":[106.637651324272,10.8041364085074]},"properties":{"id":"5deb576d1dc17d7c5515ad08","camStatus":"UP","displayName":"Cộng Hòa - Tân Kỳ Tân Quý"}},{"type":"Feature","geometry":{"type":"Point","coordinates":[106.679971218109,10.8615244216871]},"properties":{"id":"595dc70d3dcfc400106f289a","camStatus":"NOT_IMAGE","displayName":"Quốc lộ 1 - Ngã 4 Ga"}},{"type":"Feature","geometry":{"type":"Point","coordinates":[106.71789765358,10.7996258308418]},"properties":{"id":"587c79e9b807da0011e33d3d","camStatus":"UP","displayName":"Điện Biên Phủ - Nguyễn Văn Thương (D1)"}},{"type":"Feature","geometry":{"type":"Point","coordinates":[106.716138124466,10.7888338935436]},"properties":{"id":"63b65ebebfd3d90017eaa3ae","camStatus":"UP","displayName":"Nguyễn Hữu Cảnh - Ngô Tất Tố 2 (Dạ cầu Thủ Thiêm 1)"}},{"type":"Feature","geometry":{"type":"Point","coordinates":[106.657757163048,10.8001053464053]},"properties":{"id":"5874769eb807da0011e33cec","camStatus":"UP","displayName":"Cộng Hòa - Út Tịch 2"}},{"type":"Feature","geometry":{"type":"Point","coordinates":[106.723862886429,10.7526506780822]},"properties":{"id":"63b660f8bfd3d90017eaa4ea","camStatus":"UP","displayName":"Cầu Tân Thuận 2 - Q7 (Q7-Q4)"}},{"type":"Feature","geometry":{"type":"Point","coordinates":[106.706235408783,10.7826315159924]},"properties":{"id":"58af994abd82540010390c37","camStatus":"UP","displayName":"Nguyễn Hữu Cảnh - Tôn Đức Thắng"}},{"type":"Feature","geometry":{"type":"Point","coordinates":[106.674022078514,10.8090315732439]},"properties":{"id":"56df8108c062921100c143db","camStatus":"UP","displayName":"Hoàng Minh Giám - Hồng Hà"}},{"type":"Feature","geometry":{"type":"Point","coordinates":[106.636669635773,10.7483923035435]},"properties":{"id":"63ae7903bfd3d90017e8f211","camStatus":"UP","displayName":"Hậu Giang -  Hẻm 491"}},{"type":"Feature","geometry":{"type":"Point","coordinates":[106.703719496727,10.7635071530486]},"properties":{"id":"63ae7727bfd3d90017e8f14a","camStatus":"UP","displayName":"Hoàng Diệu - Đoàn Văn Bơ 2"}},{"type":"Feature","geometry":{"type":"Point","coordinates":[106.711503267288,10.8021551350728]},"properties":{"id":"5d9ddec9766c880017188c9c","camStatus":"UP","displayName":"Nút giao Hàng Xanh 5 (Hàng Xanh - Bạch Đằng)"}},{"type":"Feature","geometry":{"type":"Point","coordinates":[106.691552996635,10.7843441648872]},"properties":{"id":"5deb576d1dc17d7c5515ad02","camStatus":"NOT_IMAGE","displayName":"Điện Biên Phủ - Pasteur"}},{"type":"Feature","geometry":{"type":"Point","coordinates":[106.6664904356,10.7858618271433]},"properties":{"id":"63ae79aabfd3d90017e8f26a","camStatus":"UP","displayName":"Cách Mạng Tháng Tám - Trường Sơn"}},{"type":"Feature","geometry":{"type":"Point","coordinates":[106.722366213799,10.8291383225836]},"properties":{"id":"5d8cd7fb766c880017188954","camStatus":"NOT_IMAGE","displayName":"Phạm Văn Đồng - Đường 20 (hướng đi Sân bay)"}},{"type":"Feature","geometry":{"type":"Point","coordinates":[106.663234233856,10.7499786604875]},"properties":{"id":"56de42f611f398ec0c481293","camStatus":"NOT_IMAGE","displayName":"Võ Văn Kiệt - Hải Thượng Lãn Ông 1"}},{"type":"Feature","geometry":{"type":"Point","coordinates":[106.695753335953,10.8114079914905]},"properties":{"id":"63b66089bfd3d90017eaa4bd","camStatus":"UP","displayName":"Nơ Trang Long - Chu Văn An"}},{"type":"Feature","geometry":{"type":"Point","coordinates":[106.664623618126,10.7869104851311]},"properties":{"id":"63ae798abfd3d90017e8f255","camStatus":"UP","displayName":"Cách Mạng Tháng Tám - Bắc Hải"}},{"type":"Feature","geometry":{"type":"Point","coordinates":[106.701729297638,10.7865626894198]},"properties":{"id":"6318287ec9eae60017a19f36","camStatus":"NOT_IMAGE","displayName":"Nguyễn Thị Minh Khai - Đinh Tiên Hoàng 2"}},{"type":"Feature","geometry":{"type":"Point","coordinates":[106.657853722572,10.8010380283306]},"properties":{"id":"587476e3b807da0011e33cee","camStatus":"NOT_IMAGE","displayName":"Cộng Hòa - Út Tịch 1"}},{"type":"Feature","geometry":{"type":"Point","coordinates":[106.712324023247,10.8012277259948]},"properties":{"id":"5d9ddf49766c880017188ca0","camStatus":"UP","displayName":"Nút giao Hàng Xanh 7 (Hàng Xanh - Cầu Văn Thánh)"}},{"type":"Feature","geometry":{"type":"Point","coordinates":[106.678780317307,10.7662581006404]},"properties":{"id":"63ae763bbfd3d90017e8f0c4","camStatus":"UP","displayName":"Lý Thái Tổ - Nguyễn Đình Chiểu"}},{"type":"Feature","geometry":{"type":"Point","coordinates":[106.743823885918,10.8411932946322]},"properties":{"id":"5d8cda6a766c880017188960","camStatus":"UP","displayName":"Phạm Văn Đồng - Kha Vạn Cân (hướng đi Sân bay)"}},{"type":"Feature","geometry":{"type":"Point","coordinates":[106.679236292839,10.8142217306645]},"properties":{"id":"56df84abc062921100c143e5","camStatus":"UP","displayName":"Nút giao Nguyễn Thái Sơn 3 (Phạm Văn Đồng)"}},{"type":"Feature","geometry":{"type":"Point","coordinates":[106.68691277504,10.7543213358374]},"properties":{"id":"56de42f611f398ec0c48128b","camStatus":"UP","displayName":"Võ Văn Kiệt - Nguyễn Văn Cừ 1"}},{"type":"Feature","geometry":{"type":"Point","coordinates":[106.687223911285,10.7863150164711]},"properties":{"id":"58e49ff8d9d6200011e0b9d4","camStatus":"UP","displayName":"Nam Kỳ Khởi Nghĩa - Trần Quốc Toản"}},{"type":"Feature","geometry":{"type":"Point","coordinates":[106.695785522461,10.7919218604929]},"properties":{"id":"5a8241105058170011f6eaa6","camStatus":"UP","displayName":"Đinh Tiên Hoàng - Võ Thị Sáu 2"}},{"type":"Feature","geometry":{"type":"Point","coordinates":[106.651657819748,10.7937134991298]},"properties":{"id":"5d8cdb0a766c880017188964","camStatus":"UP","displayName":"Trường Chinh - Xuân Hồng"}},{"type":"Feature","geometry":{"type":"Point","coordinates":[106.701048016548,10.7403707962704]},"properties":{"id":"56df833ac062921100c143e1","camStatus":"NOT_IMAGE","displayName":"Nguyễn Hữu Thọ - Nguyễn Thị Thập 2"}},{"type":"Feature","geometry":{"type":"Point","coordinates":[106.59654378891,10.7947673992211]},"properties":{"id":"5a6082698576340017d06678","camStatus":"UP","displayName":"QL1 - Trạm thu phí AS-AL 2"}},{"type":"Feature","geometry":{"type":"Point","coordinates":[106.702335476875,10.779137682017]},"properties":{"id":"5ad0621c98d8fc001102e268","camStatus":"UP","displayName":"Lý Tự Trọng - Hai Bà Trưng 2"}},{"type":"Feature","geometry":{"type":"Point","coordinates":[106.633172035217,10.8532003648042]},"properties":{"id":"595f89323dcfc400106f28ee","camStatus":"NOT_IMAGE","displayName":"Quốc lộ 1 - BQB Cầu vượt Quang Trung A (hướng An Sương)"}},{"type":"Feature","geometry":{"type":"Point","coordinates":[106.6864407,10.7536415]},"properties":{"id":"56de42f611f398ec0c48128c","camStatus":"UP","displayName":"Võ Văn Kiệt - Nguyễn Văn Cừ 2"}},{"type":"Feature","geometry":{"type":"Point","coordinates":[106.711578369141,10.8589376668263]},"properties":{"id":"595d98fc3dcfc400106f287b","camStatus":"NOT_IMAGE","displayName":"Quốc lộ 1 - An Phú Đông 13 (2)"}},{"type":"Feature","geometry":{"type":"Point","coordinates":[106.662520766258,10.7546955197447]},"properties":{"id":"63b3c274bfd3d90017e9ab93","camStatus":"UP","displayName":"Hồng Bàng - Phù Đổng Thiên Vương"}},{"type":"Feature","geometry":{"type":"Point","coordinates":[106.718090772629,10.8960825794088]},"properties":{"id":"63b54bcdbfd3d90017ea7a82","camStatus":"UP","displayName":"Tỉnh lộ 43 - KCX Linh Trung 2"}},{"type":"Feature","geometry":{"type":"Point","coordinates":[106.660348176956,10.7489404145267]},"properties":{"id":"5b5995a3fd4edb0019c7d9ab","camStatus":"UP","displayName":"Võ Văn Kiệt - Cầu Chà Và 2 (trên cầu)"}},{"type":"Feature","geometry":{"type":"Point","coordinates":[106.659817099571,10.7644610285251]},"properties":{"id":"63ae7b3cbfd3d90017e8f34d","camStatus":"UP","displayName":"Ba Tháng Hai - Lý Thường Kiệt 3"}},{"type":"Feature","geometry":{"type":"Point","coordinates":[106.701568365097,10.7866101161314]},"properties":{"id":"6318283cc9eae60017a19f0c","camStatus":"UP","displayName":"Nguyễn Thị Minh Khai - Đinh Tiên Hoàng 1"}},{"type":"Feature","geometry":{"type":"Point","coordinates":[106.681205,10.765389]},"properties":{"id":"5deb576d1dc17d7c5515acf6","camStatus":"UP","displayName":"Nút giao Ngã sáu Cộng Hòa"}},{"type":"Feature","geometry":{"type":"Point","coordinates":[106.717844009399,10.7715175052402]},"properties":{"id":"56f8e796025e9511002786cf","camStatus":"NOT_IMAGE","displayName":"Đường hầm - Trạm Thu Phí"}},{"type":"Feature","geometry":{"type":"Point","coordinates":[106.748507022858,10.8743050851613]},"properties":{"id":"58746488b807da0011e33cd7","camStatus":"UP","displayName":"Cầu vượt Sóng Thần 2"}},{"type":"Feature","geometry":{"type":"Point","coordinates":[106.722586154938,10.7732144077704]},"properties":{"id":"5822b5ededeb6c0012a2d66a","camStatus":"NOT_IMAGE","displayName":"Mai Chí Thọ - Nguyễn Cơ Thạch 1"}},{"type":"Feature","geometry":{"type":"Point","coordinates":[106.723691225052,10.7527666230832]},"properties":{"id":"63b660d8bfd3d90017eaa4d5","camStatus":"UP","displayName":"Cầu Tân Thuận 2 - Q7 (Q4-Q7)"}},{"type":"Feature","geometry":{"type":"Point","coordinates":[106.657199263573,10.7621527500863]},"properties":{"id":"63ae7be0bfd3d90017e8f3a8","camStatus":"UP","displayName":"Ba Tháng Hai - Lê Đại Hành 1"}},{"type":"Feature","geometry":{"type":"Point","coordinates":[106.724474430084,10.7983348235969]},"properties":{"id":"63b54f70bfd3d90017ea7c86","camStatus":"UP","displayName":"Cầu Sài Gòn (10)"}},{"type":"Feature","geometry":{"type":"Point","coordinates":[106.697700619698,10.7235786992945]},"properties":{"id":"5a8267fe5058170011f6eae1","camStatus":"UP","displayName":"Lê Văn Lương - Cầu Rạch Đĩa"}},{"type":"Feature","geometry":{"type":"Point","coordinates":[106.711691021919,10.8589534719139]},"properties":{"id":"595d984b3dcfc400106f2879","camStatus":"NOT_IMAGE","displayName":"Quốc lộ 1 - An Phú Đông 13 (1)"}},{"type":"Feature","geometry":{"type":"Point","coordinates":[106.699481606483,10.7747057769436]},"properties":{"id":"5b25a268f13cba001124e713","camStatus":"NOT_IMAGE","displayName":"Nam Kỳ Khởi Nghĩa - Lê Thánh Tôn"}},{"type":"Feature","geometry":{"type":"Point","coordinates":[106.701278686523,10.7560025246799]},"properties":{"id":"63ae768dbfd3d90017e8f0f1","camStatus":"UP","displayName":"Khánh Hội - Vĩnh Hội"}},{"type":"Feature","geometry":{"type":"Point","coordinates":[106.624760627747,10.8274733494884]},"properties":{"id":"58e49783d9d6200011e0b9ce","camStatus":"UP","displayName":"Trường Chinh - Phan Văn Hớn 2 (HM-Q12)"}},{"type":"Feature","geometry":{"type":"Point","coordinates":[106.693342,10.771135]},"properties":{"id":"5deb576d1dc17d7c5515ad0c","camStatus":"NOT_IMAGE","displayName":"Nút giao Ngã sáu Phù Đổng"}},{"type":"Feature","geometry":{"type":"Point","coordinates":[106.728331446648,10.7525452734972]},"properties":{"id":"585b2baec3f96200127dc508","camStatus":"UP","displayName":"Nguyễn Văn Linh - Huỳnh Tấn Phát 2"}},{"type":"Feature","geometry":{"type":"Point","coordinates":[106.70245885849,10.6891377555772]},"properties":{"id":"591c662ba6bfb5001194009c","camStatus":"UP","displayName":"Cầu Long Kiểng (HCM)"}},{"type":"Feature","geometry":{"type":"Point","coordinates":[106.71005487442,10.8144114199963]},"properties":{"id":"5a606cd08576340017d06628","camStatus":"NOT_IMAGE","displayName":"BX Miền Đông - Đinh Bộ Lĩnh 2"}},{"type":"Feature","geometry":{"type":"Point","coordinates":[106.726062297821,10.7987616470143]},"properties":{"id":"589d0bceb3bf7600110283d6","camStatus":"UP","displayName":"Cầu Sài Gòn 2 (Bình Thạnh)"}},{"type":"Feature","geometry":{"type":"Point","coordinates":[106.669279932976,10.7576520833075]},"properties":{"id":"5d8cd253766c88001718893a","camStatus":"NOT_IMAGE","displayName":"Nguyễn Tri Phương - Hùng Vương"}},{"type":"Feature","geometry":{"type":"Point","coordinates":[106.683232784271,10.8020392090947]},"properties":{"id":"587ee2aeb807da0011e33d52","camStatus":"UP","displayName":"Phan Đăng Lưu - Phan Xích Long"}},{"type":"Feature","geometry":{"type":"Point","coordinates":[106.699186563492,10.7646665593097]},"properties":{"id":"56f8e708025e9511002786cb","camStatus":"UP","displayName":"Đường hầm - Ký Con"}},{"type":"Feature","geometry":{"type":"Point","coordinates":[106.750985383987,10.8758064874328]},"properties":{"id":"5874644cb807da0011e33cd5","camStatus":"UP","displayName":"Cầu vượt Sóng Thần 1"}},{"type":"Feature","geometry":{"type":"Point","coordinates":[106.716717481613,10.7713172490313]},"properties":{"id":"5a10c79f02eb490011a0b0dd","camStatus":"UP","displayName":"Mai Chí Thọ - Tố Hữu (C6)"}},{"type":"Feature","geometry":{"type":"Point","coordinates":[106.699659,10.784426]},"properties":{"id":"5deb576d1dc17d7c5515ad19","camStatus":"UP","displayName":"Nguyễn Thị Minh Khai - Mạc Đĩnh Chi"}},{"type":"Feature","geometry":{"type":"Point","coordinates":[106.577231884003,10.6945039266875]},"properties":{"id":"591c6b71a6bfb500119400a5","camStatus":"UP","displayName":"Cầu Cái Tâm (Long An)"}},{"type":"Feature","geometry":{"type":"Point","coordinates":[106.684375405312,10.7596494601112]},"properties":{"id":"5b6329fdfd4edb0019c7dc0b","camStatus":"UP","displayName":"Nguyễn Trãi - Nguyễn Văn Cừ"}},{"type":"Feature","geometry":{"type":"Point","coordinates":[106.623339056969,10.8556133114939]},"properties":{"id":"589add0fb3bf7600110283ae","camStatus":"UP","displayName":"Tô Ký (Tỉnh lộ 15) - Đông Bắc"}},{"type":"Feature","geometry":{"type":"Point","coordinates":[106.691815853119,10.7878590168447]},"properties":{"id":"5deb576d1dc17d7c5515ad01","camStatus":"NOT_IMAGE","displayName":"Võ Thị Sáu - Hai Bà Trưng"}},{"type":"Feature","geometry":{"type":"Point","coordinates":[106.726319789886,10.7985614089434]},"properties":{"id":"58abbf72bd82540010390ba4","camStatus":"UP","displayName":"Cầu Sài Gòn 9 (Bình Thạnh - Thủ Đức)"}},{"type":"Feature","geometry":{"type":"Point","coordinates":[106.680378913879,10.7990461956223]},"properties":{"id":"58ad6961bd82540010390be5","camStatus":"UP","displayName":"Nút giao Phú Nhuận 1 (Phan Đình Phùng)"}},{"type":"Feature","geometry":{"type":"Point","coordinates":[106.595111489296,10.7877852422632]},"properties":{"id":"59ca2fa302eb490011a0a3fd","camStatus":"NOT_IMAGE","displayName":"QL1 - cầu Bình Thuận"}},{"type":"Feature","geometry":{"type":"Point","coordinates":[106.721127033234,10.7978184191454]},"properties":{"id":"5a606dbc8576340017d0662b","camStatus":"UP","displayName":"Điện Biên Phủ - Nguyễn Hữu Cảnh"}},{"type":"Feature","geometry":{"type":"Point","coordinates":[106.729398965836,10.7991621227557]},"properties":{"id":"58abbee5bd82540010390ba2","camStatus":"UP","displayName":"Cầu Sài Gòn 5 (dạ cầu Thủ Đức)"}},{"type":"Feature","geometry":{"type":"Point","coordinates":[106.57566010952,10.6860698233787]},"properties":{"id":"58d7b756c1e33c00112b320d","camStatus":"NOT_IMAGE","displayName":"Nút giao Chợ Đệm 2 (CT Trung Lương - Bùi Thanh Khiết)"}},{"type":"Feature","geometry":{"type":"Point","coordinates":[106.683688759804,10.7825155824841]},"properties":{"id":"5deb576d1dc17d7c5515acfe","camStatus":"UP","displayName":"Lý Chính Thắng - Trương Định"}},{"type":"Feature","geometry":{"type":"Point","coordinates":[106.668593287468,10.8141637700114]},"properties":{"id":"58df4e22dc195800111e04bb","camStatus":"UP","displayName":"Yên Thế - Bạch Đằng"}},{"type":"Feature","geometry":{"type":"Point","coordinates":[106.595363616943,10.6901498501196]},"properties":{"id":"58d7b3e8c1e33c00112b3207","camStatus":"UP","displayName":"Quốc lộ 1 - Nguyễn Văn Linh"}},{"type":"Feature","geometry":{"type":"Point","coordinates":[106.6847884655,10.7886020312638]},"properties":{"id":"58e49e3dd9d6200011e0b9d1","camStatus":"UP","displayName":"Nam Kỳ Khởi Nghĩa - Lý Chính Thắng"}},{"type":"Feature","geometry":{"type":"Point","coordinates":[106.652473211288,10.7904463853615]},"properties":{"id":"5d8cdc57766c88001718896e","camStatus":"UP","displayName":"Lý Thường Kiệt - Lạc Long Quân"}},{"type":"Feature","geometry":{"type":"Point","coordinates":[106.621397137642,10.773841521503]},"properties":{"id":"5a824b6c5058170011f6eaab","camStatus":"UP","displayName":"Nút giao Bốn Xã 3 (Lê Văn Quới)"}},{"type":"Feature","geometry":{"type":"Point","coordinates":[106.749606728554,10.7878800952932]},"properties":{"id":"58175ac4edeb6c0012a2d5bb","camStatus":"UP","displayName":"Mai Chí Thọ - Đồng Văn Cống 1"}},{"type":"Feature","geometry":{"type":"Point","coordinates":[106.71789765358,10.8451078948305]},"properties":{"id":"62da3e840637a10017d7073d","camStatus":"NOT_IMAGE","displayName":"Quốc Lộ 13 - Nguyễn Thị Thi 3"}},{"type":"Feature","geometry":{"type":"Point","coordinates":[106.697652339935,10.7637917349984]},"properties":{"id":"56de42f611f398ec0c481288","camStatus":"UP","displayName":"Võ Văn Kiệt - Cầu Ông Lãnh 1"}},{"type":"Feature","geometry":{"type":"Point","coordinates":[106.69519007206,10.8081937627675]},"properties":{"id":"5d8cd614766c88001718894a","camStatus":"NOT_IMAGE","displayName":"Lê Quang Định - Nơ Trang Long"}},{"type":"Feature","geometry":{"type":"Point","coordinates":[106.676913499832,10.8310719980749]},"properties":{"id":"5a824f975058170011f6eab8","camStatus":"UP","displayName":"Nguyễn Oanh - Phan Văn Trị (2)"}},{"type":"Feature","geometry":{"type":"Point","coordinates":[106.621649265289,10.7738836803625]},"properties":{"id":"5a824c3e5058170011f6eaae","camStatus":"UP","displayName":"Nút giao Bốn Xã 1 (Bình Long)"}},{"type":"Feature","geometry":{"type":"Point","coordinates":[106.68202,10.777768]},"properties":{"id":"5deb576d1dc17d7c5515acf9","camStatus":"UP","displayName":"Nút giao Công Trường Dân Chủ"}},{"type":"Feature","geometry":{"type":"Point","coordinates":[106.715097427368,10.7892027649838]},"properties":{"id":"587470c2b807da0011e33ce4","camStatus":"UP","displayName":"Nguyễn Hữu Cảnh - Ngô Tất Tố (Cầu Thủ Thiêm 1)"}},{"type":"Feature","geometry":{"type":"Point","coordinates":[106.60130739212,10.8162345391232]},"properties":{"id":"584e734a61cfea0012cf694f","camStatus":"UP","displayName":"Quốc lộ 1 - Lê Trọng Tấn"}},{"type":"Feature","geometry":{"type":"Point","coordinates":[106.659903,10.763649]},"properties":{"id":"5deb576d1dc17d7c5515ad23","camStatus":"NOT_IMAGE","displayName":"Ba Tháng Hai - Lý Thường Kiệt"}},{"type":"Feature","geometry":{"type":"Point","coordinates":[106.705430746078,10.8591062543837]},"properties":{"id":"595d9ba43dcfc400106f2880","camStatus":"NOT_IMAGE","displayName":"Quốc lộ 1 - An Phú Đông 12 (2)"}},{"type":"Feature","geometry":{"type":"Point","coordinates":[106.700909,10.774816]},"properties":{"id":"5deb576d1dc17d7c5515ad0d","camStatus":"NOT_IMAGE","displayName":"Lê Lợi - Pasteur"}},{"type":"Feature","geometry":{"type":"Point","coordinates":[106.689192652702,10.8192748027252]},"properties":{"id":"587efb60b807da0011e33d5d","camStatus":"NOT_IMAGE","displayName":"Phạm Văn Đồng - Lê Quang Định 1"}},{"type":"Feature","geometry":{"type":"Point","coordinates":[106.633611917496,10.8486167661312]},"properties":{"id":"589ad89eb3bf7600110283ac","camStatus":"UP","displayName":"Tô Ký (Tỉnh lộ 15) - Hẻm 146"}},{"type":"Feature","geometry":{"type":"Point","coordinates":[106.699680089951,10.7671171078657]},"properties":{"id":"5701e22bc4350a1100e26f6c","camStatus":"UP","displayName":"Nguyễn Công Trứ - Calmette 1"}},{"type":"Feature","geometry":{"type":"Point","coordinates":[106.715902090073,10.7710432140034]},"properties":{"id":"5b87c386ca057700116404a6","camStatus":"UP","displayName":"Đường hầm (Đầu hầm Tp Thủ Đức)"}},{"type":"Feature","geometry":{"type":"Point","coordinates":[106.632796525955,10.8134629721378]},"properties":{"id":"5875cef0b807da0011e33d14","camStatus":"NOT_IMAGE","displayName":"Trường Chinh - Phạm Văn Bạch 2"}},{"type":"Feature","geometry":{"type":"Point","coordinates":[106.702115535736,10.7791113331904]},"properties":{"id":"5a823d555058170011f6eaa2","camStatus":"UP","displayName":"Lý Tự Trọng - Hai Bà Trưng 1"}},{"type":"Feature","geometry":{"type":"Point","coordinates":[106.698827147484,10.8601019727034]},"properties":{"id":"595da2853dcfc400106f2883","camStatus":"UP","displayName":"Quốc lộ 1 - Đường 15 (1)"}},{"type":"Feature","geometry":{"type":"Point","coordinates":[106.662268638611,10.8013067666529]},"properties":{"id":"587c8183b807da0011e33d3f","camStatus":"UP","displayName":"Hoàng Văn Thụ - Trần Quốc Hoàn"}},{"type":"Feature","geometry":{"type":"Point","coordinates":[106.684874296188,10.7568773715932]},"properties":{"id":"5b632950fd4edb0019c7dc07","camStatus":"UP","displayName":"Nguyễn Văn Cừ - Trần Hưng Đạo 3"}},{"type":"Feature","geometry":{"type":"Point","coordinates":[106.699558,10.788566]},"properties":{"id":"5deb576d1dc17d7c5515ad06","camStatus":"UP","displayName":"Đinh Tiên Hoàng - Nguyễn Đình Chiểu"}},{"type":"Feature","geometry":{"type":"Point","coordinates":[106.677889823914,10.7275738904052]},"properties":{"id":"5a8279865058170011f6eaef","camStatus":"UP","displayName":"Nguyễn Văn Linh - Phạm Hùng 2"}},{"type":"Feature","geometry":{"type":"Point","coordinates":[106.702179908752,10.7528720275909]},"properties":{"id":"63ae7669bfd3d90017e8f0d9","camStatus":"UP","displayName":"Khánh Hội - Cầu Kênh Tẻ"}},{"type":"Feature","geometry":{"type":"Point","coordinates":[106.754236221313,10.7903304548658]},"properties":{"id":"63b65e6abfd3d90017eaa361","camStatus":"UP","displayName":"Nguyễn Thị Định - Thân Văn Nhiếp"}},{"type":"Feature","geometry":{"type":"Point","coordinates":[106.664215922356,10.8048741133609]},"properties":{"id":"56f11afc3ac17b11001c504e","camStatus":"UP","displayName":"Trường Sơn - Phan Đình Giót"}},{"type":"Feature","geometry":{"type":"Point","coordinates":[106.728594303131,10.7528825680397]},"properties":{"id":"585b2b1ec3f96200127dc505","camStatus":"UP","displayName":"Nguyễn Văn Linh - Huỳnh Tấn Phát 1"}},{"type":"Feature","geometry":{"type":"Point","coordinates":[106.700441837311,10.7282010989927]},"properties":{"id":"5a825b7d5058170011f6ead4","camStatus":"UP","displayName":"Nguyễn Văn Linh - Nguyễn Hữu Thọ (3)"}},{"type":"Feature","geometry":{"type":"Point","coordinates":[106.698435544968,10.8026188385378]},"properties":{"id":"5a6069238576340017d0661c","camStatus":"UP","displayName":"Bạch Đằng - Lê Quang Định"}},{"type":"Feature","geometry":{"type":"Point","coordinates":[106.61993265152,10.7263616348268]},"properties":{"id":"56de42f611f398ec0c481298","camStatus":"UP","displayName":"Võ Văn Kiệt - An Dương Vương 1"}},{"type":"Feature","geometry":{"type":"Point","coordinates":[106.682116985321,10.7700103105034]},"properties":{"id":"63ae75f9bfd3d90017e8f097","camStatus":"UP","displayName":"Cao Thắng – Võ Văn Tần 2"}},{"type":"Feature","geometry":{"type":"Point","coordinates":[106.719351410866,10.7564346782916]},"properties":{"id":"63ae7829bfd3d90017e8f1ac","camStatus":"UP","displayName":"Nguyễn Tất Thành - Cầu Tân Thuận 1"}},{"type":"Feature","geometry":{"type":"Point","coordinates":[106.683876514435,10.7558233388544]},"properties":{"id":"63ae78ccbfd3d90017e8f1f9","camStatus":"UP","displayName":"Trần Hưng Đạo – Nguyễn Biểu 2"}},{"type":"Feature","geometry":{"type":"Point","coordinates":[106.653299331665,10.8619827649163]},"properties":{"id":"595dd9ac3dcfc400106f28b4","camStatus":"NOT_IMAGE","displayName":"Quốc lộ 1 - BQB Trước UBND Q12 (hướng đi An Sương)"}},{"type":"Feature","geometry":{"type":"Point","coordinates":[106.713402271271,10.7705847317646]},"properties":{"id":"5990ffdbbec3b90016d2ad2d","camStatus":"UP","displayName":"Đường hầm (Đầu hầm Tp Thủ Đức)"}},{"type":"Feature","geometry":{"type":"Point","coordinates":[106.700549125671,10.7291234621994]},"properties":{"id":"5a8259035058170011f6eacf","camStatus":"UP","displayName":"Nguyễn Văn Linh - Nguyễn Hữu Thọ (1)"}},{"type":"Feature","geometry":{"type":"Point","coordinates":[106.668984889984,10.7459679545654]},"properties":{"id":"58744f1fb807da0011e33cbd","camStatus":"UP","displayName":"Hưng Phú - Chánh Hưng 1"}},{"type":"Feature","geometry":{"type":"Point","coordinates":[106.732392311096,10.8730512767713]},"properties":{"id":"63b54cffbfd3d90017ea7ad0","camStatus":"UP","displayName":"Tỉnh lộ 43 - Chân cầu Gò Dưa"}},{"type":"Feature","geometry":{"type":"Point","coordinates":[106.693124771118,10.8984214318454]},"properties":{"id":"589b4644b3bf7600110283ce","camStatus":"UP","displayName":"Hà Huy Giáp - Cầu Phú Long 1"}},{"type":"Feature","geometry":{"type":"Point","coordinates":[106.732848286629,10.8374050930507]},"properties":{"id":"5d8cd8e2766c880017188958","camStatus":"UP","displayName":"Phạm Văn Đồng - Hiệp Bình (hướng đi Sân bay)"}},{"type":"Feature","geometry":{"type":"Point","coordinates":[106.594237089157,10.7485662234825]},"properties":{"id":"5a6086e88576340017d0668a","camStatus":"UP","displayName":"QL1-Cty Pouyuen (1)"}},{"type":"Feature","geometry":{"type":"Point","coordinates":[106.718181967735,10.7911261587324]},"properties":{"id":"5b6c15b8ca0577001163fe39","camStatus":"NOT_IMAGE","displayName":"Nguyễn Hữu Cảnh 3 (Hầm chui)"}},{"type":"Feature","geometry":{"type":"Point","coordinates":[106.716395616531,10.8075192972885]},"properties":{"id":"586e2995f9fab7001111b0b5","camStatus":"UP","displayName":"Ung Văn Khiêm - Nguyễn Gia Trí (D2)"}},{"type":"Feature","geometry":{"type":"Point","coordinates":[106.751462817192,10.8533952979021]},"properties":{"id":"5d8cd98d766c88001718895a","camStatus":"UP","displayName":"Phạm Văn Đồng - Tô Ngọc Vân (hướng đi Bình Dương)"}},{"type":"Feature","geometry":{"type":"Point","coordinates":[106.74994468689,10.7876851195878]},"properties":{"id":"56de42f611f398ec0c481282","camStatus":"UP","displayName":"Mai Chí Thọ - Đồng Văn Cống 2"}},{"type":"Feature","geometry":{"type":"Point","coordinates":[106.660938262939,10.8044525679523]},"properties":{"id":"58df4c2bdc195800111e04b7","camStatus":"NOT_IMAGE","displayName":"Thăng Long - Phan Thúc Duyện"}},{"type":"Feature","geometry":{"type":"Point","coordinates":[106.647216081619,10.839438820585]},"properties":{"id":"5a6066608576340017d06617","camStatus":"UP","displayName":"Quang Trung - Tân Sơn"}},{"type":"Feature","geometry":{"type":"Point","coordinates":[106.754064559937,10.8062546704304]},"properties":{"id":"56de42f611f398ec0c48127e","camStatus":"UP","displayName":"Mai Chí Thọ - Xa lộ Hà Nội (Cát Lái cầu B)"}},{"type":"Feature","geometry":{"type":"Point","coordinates":[106.671018004417,10.8617667641718]},"properties":{"id":"595dd3a63dcfc400106f28a7","camStatus":"UP","displayName":"Quốc lộ 1 - Đường Tô Ngọc Vân 1"}},{"type":"Feature","geometry":{"type":"Point","coordinates":[106.665004491806,10.8123880609396]},"properties":{"id":"56f8d743025e9511002786c5","camStatus":"UP","displayName":"Trường Sơn - Ga Quốc Nội 1"}},{"type":"Feature","geometry":{"type":"Point","coordinates":[106.655761599541,10.7190774577163]},"properties":{"id":"5a8266105058170011f6eadf","camStatus":"UP","displayName":"Nguyễn Văn Linh - Quốc lộ 50 (2)"}},{"type":"Feature","geometry":{"type":"Point","coordinates":[106.579173803329,10.8135788937036]},"properties":{"id":"5a82602c5058170011f6ead9","camStatus":"UP","displayName":"Vĩnh Lộc - Nguyễn Thị Tú 1"}},{"type":"Feature","geometry":{"type":"Point","coordinates":[106.727993488312,10.755127675229]},"properties":{"id":"585b2980c3f96200127dc502","camStatus":"UP","displayName":"Huỳnh Tấn Phát - Lưu Trọng Lư 2"}},{"type":"Feature","geometry":{"type":"Point","coordinates":[106.682481765747,10.7664899801327]},"properties":{"id":"56de42f611f398ec0c481284","camStatus":"UP","displayName":"Nguyễn Thị Minh Khai - Nguyễn Thiện Thuật"}},{"type":"Feature","geometry":{"type":"Point","coordinates":[106.673265695572,10.7710959130666]},"properties":{"id":"63ae7a08bfd3d90017e8f285","camStatus":"UP","displayName":"Ba Tháng Hai - Lê Hồng Phong 1"}},{"type":"Feature","geometry":{"type":"Point","coordinates":[106.694852113724,10.8031879281753]},"properties":{"id":"587ee7d7b807da0011e33d55","camStatus":"UP","displayName":"Phan Đăng Lưu - Nơ Trang Long"}},{"type":"Feature","geometry":{"type":"Point","coordinates":[106.70004,10.7731]},"properties":{"id":"5deb576d1dc17d7c5515ad12","camStatus":"NOT_IMAGE","displayName":"Nam Kỳ Khởi Nghĩa - Lê Lợi"}},{"type":"Feature","geometry":{"type":"Point","coordinates":[106.698076,10.782987]},"properties":{"id":"5deb576d1dc17d7c5515ad17","camStatus":"UP","displayName":"Nguyễn Thị Minh Khai - Hai Bà Trưng"}},{"type":"Feature","geometry":{"type":"Point","coordinates":[106.707345843315,10.7643450880206]},"properties":{"id":"63ae7893bfd3d90017e8f1e1","camStatus":"UP","displayName":"Nguyễn Tất Thành - Lê Văn Linh"}},{"type":"Feature","geometry":{"type":"Point","coordinates":[106.695769429207,10.7682501504601]},"properties":{"id":"5a823ba75058170011f6ea9e","camStatus":"UP","displayName":"Trần Hưng Đạo - Nguyễn Thái Học 1"}},{"type":"Feature","geometry":{"type":"Point","coordinates":[106.665363907814,10.8136315853096]},"properties":{"id":"56df8544c062921100c143e6","camStatus":"UP","displayName":"Trường Sơn - Ga Quốc Tế"}},{"type":"Feature","geometry":{"type":"Point","coordinates":[106.649731993675,10.8620881310764]},"properties":{"id":"595ddb493dcfc400106f28b6","camStatus":"UP","displayName":"Quốc lộ 1 - Cầu vượt Tân Thới Hiệp 2"}},{"type":"Feature","geometry":{"type":"Point","coordinates":[106.686376333237,10.8243172516762]},"properties":{"id":"5a60604f8576340017d0660b","camStatus":"UP","displayName":"Nguyễn Thái Sơn - Nguyễn Văn Nghi 2"}},{"type":"Feature","geometry":{"type":"Point","coordinates":[106.751317977905,10.8536007677866]},"properties":{"id":"5d8cd9cb766c88001718895c","camStatus":"UP","displayName":"Phạm Văn Đồng - Tô Ngọc Vân (hướng đi Sân bay)"}},{"type":"Feature","geometry":{"type":"Point","coordinates":[106.709566712379,10.8133575888573]},"properties":{"id":"5a8256315058170011f6eac9","camStatus":"UP","displayName":"Đinh Bộ Lĩnh - Nguyễn Xí"}},{"type":"Feature","geometry":{"type":"Point","coordinates":[106.690700054169,10.7833376554873]},"properties":{"id":"58af8d68bd82540010390c2e","camStatus":"UP","displayName":"Nam Kỳ Khởi Nghĩa - Điện Biên Phủ 2"}},{"type":"Feature","geometry":{"type":"Point","coordinates":[106.691998243332,10.8607341730882]},"properties":{"id":"595da7783dcfc400106f2888","camStatus":"NOT_IMAGE","displayName":"Quốc lộ 1 - Đường Vườn Lài 1"}},{"type":"Feature","geometry":{"type":"Point","coordinates":[106.658910512924,10.7548430851016]},"properties":{"id":"5b728aafca0577001163ff7e","camStatus":"UP","displayName":"Hồng Bàng - Châu Văn Liêm"}},{"type":"Feature","geometry":{"type":"Point","coordinates":[106.672096252441,10.7828791919741]},"properties":{"id":"63ae7966bfd3d90017e8f240","camStatus":"UP","displayName":"Cách Mạng Tháng Tám - Tô Hiến Thành"}},{"type":"Feature","geometry":{"type":"Point","coordinates":[106.603088378906,10.8253815821995]},"properties":{"id":"5a607fa38576340017d06671","camStatus":"NOT_IMAGE","displayName":"QL1-KCN Vĩnh Lộc (2) - Hướng An Lạc"}},{"type":"Feature","geometry":{"type":"Point","coordinates":[106.668851,10.759539]},"properties":{"id":"5deb576d1dc17d7c5515ad21","camStatus":"UP","displayName":"Nút giao Ngã sáu Nguyễn Tri Phương"}},{"type":"Feature","geometry":{"type":"Point","coordinates":[106.698285341263,10.7639024056841]},"properties":{"id":"56de42f611f398ec0c481289","camStatus":"UP","displayName":"Võ Văn Kiệt - Cầu Ông Lãnh 2"}},{"type":"Feature","geometry":{"type":"Point","coordinates":[106.680368185043,10.7993096663153]},"properties":{"id":"58ad69c4bd82540010390be7","camStatus":"UP","displayName":"Nút giao Phú Nhuận 2 (Phan Đăng Lưu)"}},{"type":"Feature","geometry":{"type":"Point","coordinates":[106.714040637016,10.7706637804763]},"properties":{"id":"56f8e7c9025e9511002786d1","camStatus":"NOT_IMAGE","displayName":"Đường hầm (Đầu hầm Tp Thủ Đức)"}},{"type":"Feature","geometry":{"type":"Point","coordinates":[106.695860624313,10.7675334356397]},"properties":{"id":"5a823bd55058170011f6eaa0","camStatus":"UP","displayName":"Trần Hưng Đạo - Nguyễn Thái Học 2"}},{"type":"Feature","geometry":{"type":"Point","coordinates":[106.591758728027,10.756524271036]},"properties":{"id":"5a6085688576340017d06684","camStatus":"UP","displayName":"QL1-Tỉnh lộ 10 (3)"}},{"type":"Feature","geometry":{"type":"Point","coordinates":[106.65426492691,10.8619248135124]},"properties":{"id":"595dd7693dcfc400106f28b0","camStatus":"NOT_IMAGE","displayName":"Quốc lộ 1 - Đường Lê Thị Riêng 1"}},{"type":"Feature","geometry":{"type":"Point","coordinates":[106.601028442383,10.7240003578389]},"properties":{"id":"59ca329d02eb490011a0a410","camStatus":"NOT_IMAGE","displayName":"QL1 - Nút giao An Lạc 1"}},{"type":"Feature","geometry":{"type":"Point","coordinates":[106.72761797905,10.775796632403]},"properties":{"id":"56de42f611f398ec0c481283","camStatus":"UP","displayName":"Mai Chí Thọ - Trần Não 1"}},{"type":"Feature","geometry":{"type":"Point","coordinates":[106.651834845543,10.7688034952946]},"properties":{"id":"5d8cdcf0766c880017188972","camStatus":"UP","displayName":"Nút giao Lê Đại Hành 1 (Bình Thới)"}},{"type":"Feature","geometry":{"type":"Point","coordinates":[106.693714857101,10.8212296179772]},"properties":{"id":"58af9670bd82540010390c34","camStatus":"NOT_IMAGE","displayName":"Phạm Văn Đồng - Phan Văn Trị 1"}},{"type":"Feature","geometry":{"type":"Point","coordinates":[106.596522331238,10.8885285926454]},"properties":{"id":"5a6061fd8576340017d06613","camStatus":"NOT_IMAGE","displayName":"Quang Trung - Trưng Nữ Vương"}},{"type":"Feature","geometry":{"type":"Point","coordinates":[106.692035794258,10.8605550497817]},"properties":{"id":"595da7d93dcfc400106f288a","camStatus":"NOT_IMAGE","displayName":"Quốc lộ 1 - Đường Vườn Lài 2"}},{"type":"Feature","geometry":{"type":"Point","coordinates":[106.607159972191,10.8554657956616]},"properties":{"id":"589b39d9b3bf7600110283c1","camStatus":"UP","displayName":"QL 22 - Nguyễn Ảnh Thủ 2"}},{"type":"Feature","geometry":{"type":"Point","coordinates":[106.643235683441,10.75418958083]},"properties":{"id":"5d8cd326766c88001718893e","camStatus":"NOT_IMAGE","displayName":"Nút giao Cây Gõ 3 (dạ cầu)"}},{"type":"Feature","geometry":{"type":"Point","coordinates":[106.699776649475,10.7579524811918]},"properties":{"id":"63ae76afbfd3d90017e8f106","camStatus":"UP","displayName":"Khánh Hội - Đường số 41"}},{"type":"Feature","geometry":{"type":"Point","coordinates":[106.713321805,10.7596125693667]},"properties":{"id":"63b661a3bfd3d90017eaa520","camStatus":"UP","displayName":"Nguyễn Tất Thành - Cảng SG (Q4-Q7)"}},{"type":"Feature","geometry":{"type":"Point","coordinates":[106.684235930443,10.7680815118322]},"properties":{"id":"63ae73cebfd3d90017e8f00d","camStatus":"UP","displayName":"Nguyễn Thị Minh Khai - Cống Quỳnh"}},{"type":"Feature","geometry":{"type":"Point","coordinates":[106.590535640717,10.7642238774455]},"properties":{"id":"5a6084898576340017d06680","camStatus":"NOT_IMAGE","displayName":"QL1 - Tân Tạo Chợ Đệm 3"}},{"type":"Feature","geometry":{"type":"Point","coordinates":[106.611467599869,10.721839351587]},"properties":{"id":"56de42f611f398ec0c48129b","camStatus":"UP","displayName":"Võ Văn Kiệt - Hồ Học Lãm 2"}},{"type":"Feature","geometry":{"type":"Point","coordinates":[106.69020652771,10.7285647739644]},"properties":{"id":"587447b4b807da0011e33ca0","camStatus":"NOT_IMAGE","displayName":"Nguyễn Văn Linh - Cầu Ông Lớn 2 làn"}},{"type":"Feature","geometry":{"type":"Point","coordinates":[106.675336360931,10.7955947082032]},"properties":{"id":"586e2492f9fab7001111b0ab","camStatus":"NOT_IMAGE","displayName":"Nguyễn Văn Trỗi - Nguyễn Đình Chính"}},{"type":"Feature","geometry":{"type":"Point","coordinates":[106.628301143646,10.8189533898328]},"properties":{"id":"587479b1b807da0011e33cf9","camStatus":"UP","displayName":"Trường Chinh - Tây Thạnh 2"}},{"type":"Feature","geometry":{"type":"Point","coordinates":[106.718176603317,10.8456979781692]},"properties":{"id":"62da3e620637a10017d70720","camStatus":"UP","displayName":"Quốc Lộ 13 - Nguyễn Thị Thi 2"}},{"type":"Feature","geometry":{"type":"Point","coordinates":[106.685024499893,10.7565084605536]},"properties":{"id":"5b0b7aba0e517b00119fd800","camStatus":"UP","displayName":"Nguyễn Văn Cừ - Trần Hưng Đạo 1"}},{"type":"Feature","geometry":{"type":"Point","coordinates":[106.649796366692,10.8618299839181]},"properties":{"id":"595ddbbf3dcfc400106f28b8","camStatus":"NOT_IMAGE","displayName":"Quốc lộ 1 - Cầu vượt Tân Thới Hiệp 3"}},{"type":"Feature","geometry":{"type":"Point","coordinates":[106.624749898911,10.8491120089147]},"properties":{"id":"595f8f0b3dcfc400106f28f4","camStatus":"NOT_IMAGE","displayName":"Quốc lộ 1 - BQB Cầu vượt Quang Trung B (hướng Ngã 4 Ga)"}},{"type":"Feature","geometry":{"type":"Point","coordinates":[106.678184866905,10.7573411448313]},"properties":{"id":"5d8cd3b7766c880017188942","camStatus":"UP","displayName":"Lê Hồng Phong - Nguyễn Trãi"}},{"type":"Feature","geometry":{"type":"Point","coordinates":[106.610904335976,10.722239929521]},"properties":{"id":"56de42f611f398ec0c48129a","camStatus":"UP","displayName":"Võ Văn Kiệt - Hồ Học Lãm 1"}},{"type":"Feature","geometry":{"type":"Point","coordinates":[106.690313816071,10.7281220391583]},"properties":{"id":"58744810b807da0011e33ca2","camStatus":"NOT_IMAGE","displayName":"Nguyễn Văn Linh - Cầu Ông Lớn 3 làn"}},{"type":"Feature","geometry":{"type":"Point","coordinates":[106.751103401184,10.791531914198]},"properties":{"id":"56de42f611f398ec0c48127f","camStatus":"UP","displayName":"Mai Chí Thọ - Lương Định Của 1"}},{"type":"Feature","geometry":{"type":"Point","coordinates":[106.668566465378,10.8133259738659]},"properties":{"id":"58df5016dc195800111e04bd","camStatus":"NOT_IMAGE","displayName":"Yên Thế - Hồng Hà"}},{"type":"Feature","geometry":{"type":"Point","coordinates":[106.645912528038,10.7970385413523]},"properties":{"id":"5d8cdac3766c880017188962","camStatus":"UP","displayName":"Trường Chinh - Đồng Đen"}},{"type":"Feature","geometry":{"type":"Point","coordinates":[106.679853200912,10.7928914544929]},"properties":{"id":"587ef5dfb807da0011e33d59","camStatus":"UP","displayName":"Nguyễn Văn Trỗi - Huỳnh Văn Bánh"}},{"type":"Feature","geometry":{"type":"Point","coordinates":[106.686226129532,10.8610924193788]},"properties":{"id":"595dc2f03dcfc400106f2896","camStatus":"NOT_IMAGE","displayName":"Quốc lộ 1 - Rạch Láng Le 2"}},{"type":"Feature","geometry":{"type":"Point","coordinates":[106.660782694817,10.8006744408059]},"properties":{"id":"5d8cdbdc766c88001718896a","camStatus":"UP","displayName":"Hoàng Văn Thụ - Cộng Hòa"}},{"type":"Feature","geometry":{"type":"Point","coordinates":[106.755888462067,10.8266672041268]},"properties":{"id":"63b54d5abfd3d90017ea7afe","camStatus":"UP","displayName":"Đường số 1 - Cảng Phước Long"}},{"type":"Feature","geometry":{"type":"Point","coordinates":[106.700359,10.775708]},"properties":{"id":"5deb576d1dc17d7c5515ad13","camStatus":"NOT_IMAGE","displayName":"Pasteur - Lê Thánh Tôn"}},{"type":"Feature","geometry":{"type":"Point","coordinates":[106.683694124222,10.7765712954739]},"properties":{"id":"5deb576d1dc17d7c5515acf2","camStatus":"UP","displayName":"Điện Biên Phủ - Cách Mạng Tháng Tám"}},{"type":"Feature","geometry":{"type":"Point","coordinates":[106.658325791359,10.8366990807787]},"properties":{"id":"5a824e465058170011f6eab4","camStatus":"UP","displayName":"Quang Trung - Lê Văn Thọ (2)"}},{"type":"Feature","geometry":{"type":"Point","coordinates":[106.668738126755,10.7503370389747]},"properties":{"id":"56de42f611f398ec0c481291","camStatus":"UP","displayName":"Võ Văn Kiệt - Nguyễn Tri Phương 1"}},{"type":"Feature","geometry":{"type":"Point","coordinates":[106.603265404701,10.8248968380735]},"properties":{"id":"584e71cb61cfea0012cf694b","camStatus":"UP","displayName":"Quốc lộ 1 - KCN Vĩnh Lộc 3"}},{"type":"Feature","geometry":{"type":"Point","coordinates":[106.639571785927,10.8566669938921]},"properties":{"id":"595f874d3dcfc400106f28ec","camStatus":"NOT_IMAGE","displayName":"Quốc lộ 1 - Nguyễn Văn Quá 2"}},{"type":"Feature","geometry":{"type":"Point","coordinates":[106.708472371101,10.7625638146636]},"properties":{"id":"5b19d34faf4ff60011d6ea52","camStatus":"UP","displayName":"Nguyễn Tất Thành - Tôn Đản"}},{"type":"Feature","geometry":{"type":"Point","coordinates":[106.746854782104,10.8418834903115]},"properties":{"id":"63b3c9bfbfd3d90017e9b039","camStatus":"UP","displayName":"Kha Vạn Cân - Đường Số 2"}},{"type":"Feature","geometry":{"type":"Point","coordinates":[106.674156,10.767465]},"properties":{"id":"5deb576d1dc17d7c5515acf4","camStatus":"UP","displayName":"Nút giao Ngã bảy Lý Thái Tổ"}},{"type":"Feature","geometry":{"type":"Point","coordinates":[106.707914471626,10.7846234574745]},"properties":{"id":"58af99abbd82540010390c39","camStatus":"UP","displayName":"Nguyễn Hữu Cảnh - Nguyễn Bỉnh Khiêm"}},{"type":"Feature","geometry":{"type":"Point","coordinates":[106.639485955238,10.8566248466676]},"properties":{"id":"595f86c43dcfc400106f28ea","camStatus":"NOT_IMAGE","displayName":"Quốc lộ 1 - Nguyễn Văn Quá 1"}},{"type":"Feature","geometry":{"type":"Point","coordinates":[106.601784825325,10.7286174804458]},"properties":{"id":"59ca321b02eb490011a0a40d","camStatus":"UP","displayName":"QL1 - Cầu An Lập"}},{"type":"Feature","geometry":{"type":"Point","coordinates":[106.68364584446,10.75113811876]},"properties":{"id":"5a82439f5058170011f6eaa9","camStatus":"UP","displayName":"Nguyễn Biểu - Cầu Chữ Y"}},{"type":"Feature","geometry":{"type":"Point","coordinates":[106.69480919838,10.8207659432755]},"properties":{"id":"58d7c20ac1e33c00112b321c","camStatus":"UP","displayName":"Phạm Văn Đồng - Phan Văn Trị 2"}},{"type":"Feature","geometry":{"type":"Point","coordinates":[106.730428934097,10.7997417577515]},"properties":{"id":"589d0b74b3bf7600110283d4","camStatus":"UP","displayName":"Cầu Sài Gòn 4 (Thủ Đức 1)"}},{"type":"Feature","geometry":{"type":"Point","coordinates":[106.63648724556,10.8019180137061]},"properties":{"id":"56df807bc062921100c143da","camStatus":"UP","displayName":"Trường Chinh - Âu Cơ"}},{"type":"Feature","geometry":{"type":"Point","coordinates":[106.633150577545,10.8140847327392]},"properties":{"id":"586e266ef9fab7001111b0b0","camStatus":"NOT_IMAGE","displayName":"Trường Chinh - Phạm Văn Bạch 1"}},{"type":"Feature","geometry":{"type":"Point","coordinates":[106.665540933609,10.7778940148849]},"properties":{"id":"63ae7a74bfd3d90017e8f2c7","camStatus":"UP","displayName":"Tô Hiến Thành – Sư Vạn Hạnh"}},{"type":"Feature","geometry":{"type":"Point","coordinates":[106.679091453552,10.7727295794518]},"properties":{"id":"63ae7a9cbfd3d90017e8f303","camStatus":"UP","displayName":"Điện Biên Phủ – Cao Thắng"}},{"type":"Feature","geometry":{"type":"Point","coordinates":[106.592434644699,10.7563292750288]},"properties":{"id":"5a6085188576340017d06682","camStatus":"UP","displayName":"QL1-Tỉnh lộ 10 (2)"}},{"type":"Feature","geometry":{"type":"Point","coordinates":[106.75617814064,10.7936239174516]},"properties":{"id":"58d8ebd2dc195800111e0429","camStatus":"NOT_IMAGE","displayName":"Cao tốc LTDG - Cầu Bà Dạt 2"}},{"type":"Feature","geometry":{"type":"Point","coordinates":[106.704116463661,10.8200809679719]},"properties":{"id":"5a606a0f8576340017d0661e","camStatus":"UP","displayName":"Nơ Trang Long - Nguyễn Xí"}},{"type":"Feature","geometry":{"type":"Point","coordinates":[106.722918748856,10.7733830435244]},"properties":{"id":"56de42f611f398ec0c481286","camStatus":"UP","displayName":"Mai Chí Thọ - Nguyễn Cơ Thạch 2"}},{"type":"Feature","geometry":{"type":"Point","coordinates":[106.70542538166,10.8592853785591]},"properties":{"id":"595d9b3b3dcfc400106f287e","camStatus":"NOT_IMAGE","displayName":"Quốc lộ 1 - An Phú Đông 12 (1)"}},{"type":"Feature","geometry":{"type":"Point","coordinates":[106.660755872726,10.8009484488364]},"properties":{"id":"58df50ffdc195800111e04c0","camStatus":"UP","displayName":"Cộng Hòa - Thăng Long"}},{"type":"Feature","geometry":{"type":"Point","coordinates":[106.697417,10.779127]},"properties":{"id":"5deb576d1dc17d7c5515ad1a","camStatus":"UP","displayName":"Pasteur - Lê Duẩn"}},{"type":"Feature","geometry":{"type":"Point","coordinates":[106.699042,10.775615]},"properties":{"id":"5deb576d1dc17d7c5515ad0b","camStatus":"NOT_IMAGE","displayName":"Nam Kỳ Khởi Nghĩa - Lý Tự Trọng"}},{"type":"Feature","geometry":{"type":"Point","coordinates":[106.598871946335,10.7414565055181]},"properties":{"id":"5a6087858576340017d0668e","camStatus":"UP","displayName":"QL1-Trạm Biến Áp 500Kv Phú Lâm"}},{"type":"Feature","geometry":{"type":"Point","coordinates":[106.733132600784,10.8699588780888]},"properties":{"id":"587464e2b807da0011e33cd9","camStatus":"UP","displayName":"Cầu vượt nút giao thông Gò Dưa"}},{"type":"Feature","geometry":{"type":"Point","coordinates":[106.592531204224,10.689411864849]},"properties":{"id":"58afdbaebd82540010390c48","camStatus":"UP","displayName":"Quốc lộ 1 - Cao tốc Trung Lương"}},{"type":"Feature","geometry":{"type":"Point","coordinates":[106.647366285324,10.8013120360293]},"properties":{"id":"58ad6214bd82540010390be2","camStatus":"UP","displayName":"Cộng Hòa - Hoàng Hoa Thám"}},{"type":"Feature","geometry":{"type":"Point","coordinates":[106.647017598152,10.7964536316791]},"properties":{"id":"5deb576d1dc17d7c5515ad09","camStatus":"UP","displayName":"Trường Chinh - Hoàng Hoa Thám"}},{"type":"Feature","geometry":{"type":"Point","coordinates":[106.688543558121,10.784533873088]},"properties":{"id":"58af8a0bbd82540010390c25","camStatus":"UP","displayName":"Nam Kỳ Khởi Nghĩa - Võ Thị Sáu"}},{"type":"Feature","geometry":{"type":"Point","coordinates":[106.715644598007,10.7581316657523]},"properties":{"id":"5b0b74280e517b00119fd7f9","camStatus":"NOT_IMAGE","displayName":"Nguyễn Tất Thành - Cảng Sài Gòn"}},{"type":"Feature","geometry":{"type":"Point","coordinates":[106.684101819992,10.7514332528817]},"properties":{"id":"56de42f611f398ec0c48128e","camStatus":"UP","displayName":"Võ Văn Kiệt - Cầu Chữ Y 2"}},{"type":"Feature","geometry":{"type":"Point","coordinates":[106.689868569374,10.8200546227367]},"properties":{"id":"587ef859b807da0011e33d5b","camStatus":"UP","displayName":"Phạm Văn Đồng - Lê Quang Định 2"}},{"type":"Feature","geometry":{"type":"Point","coordinates":[106.689042448998,10.7469851294422]},"properties":{"id":"58744e97b807da0011e33cb9","camStatus":"UP","displayName":"Dương Bá Trạc - Tạ Quang Bửu 2"}},{"type":"Feature","geometry":{"type":"Point","coordinates":[106.611757278442,10.8393755961029]},"properties":{"id":"59c8adf202eb490011a0a352","camStatus":"NOT_IMAGE","displayName":"Phan Văn Hớn -> An Sương"}},{"type":"Feature","geometry":{"type":"Point","coordinates":[106.656062516536,10.7418073259385]},"properties":{"id":"58c2717ed56e930010a39ac0","camStatus":"UP","displayName":"Quốc Lộ 50 - Cầu Nhị Thiên Đường 2"}},{"type":"Feature","geometry":{"type":"Point","coordinates":[106.596699357033,10.6965544326304]},"properties":{"id":"58afcd9bbd82540010390c41","camStatus":"UP","displayName":"Quốc lộ 1 - Nguyễn Hữu Trí 2"}},{"type":"Feature","geometry":{"type":"Point","coordinates":[106.702550053597,10.6895647333739]},"properties":{"id":"5bbc7163ca0577001164127f","camStatus":"UP","displayName":"Lê Văn Lương - Cầu Long Kiểng (HCM)"}},{"type":"Feature","geometry":{"type":"Point","coordinates":[106.683527827263,10.7561079280569]},"properties":{"id":"5b6005b6fd4edb0019c7db25","camStatus":"NOT_IMAGE","displayName":"Trần Hưng Đạo - Nguyễn Biểu"}},{"type":"Feature","geometry":{"type":"Point","coordinates":[106.600942611694,10.7170534584198]},"properties":{"id":"56de42f611f398ec0c48129c","camStatus":"NOT_IMAGE","displayName":"Võ Văn Kiệt - Quốc Lộ 1"}},{"type":"Feature","geometry":{"type":"Point","coordinates":[106.660519838333,10.7999683420367]},"properties":{"id":"587c8661b807da0011e33d43","camStatus":"NOT_IMAGE","displayName":"Lê Văn Sỹ - Hoàng Văn Thụ"}},{"type":"Feature","geometry":{"type":"Point","coordinates":[106.669510602951,10.7524240581789]},"properties":{"id":"5b632a79fd4edb0019c7dc0f","camStatus":"UP","displayName":"Nguyễn Tri Phương - Trần Hưng Đạo"}},{"type":"Feature","geometry":{"type":"Point","coordinates":[106.671023368835,10.8619616916798]},"properties":{"id":"595dd4133dcfc400106f28a9","camStatus":"NOT_IMAGE","displayName":"Quốc lộ 1 - Đường Tô Ngọc Vân 2"}},{"type":"Feature","geometry":{"type":"Point","coordinates":[106.722747087479,10.8289275670072]},"properties":{"id":"5d8cd7bb766c880017188952","camStatus":"UP","displayName":"Phạm Văn Đồng - Đường 20 (hướng đi Thủ Đức)"}},{"type":"Feature","geometry":{"type":"Point","coordinates":[106.663454174995,10.8026451853041]},"properties":{"id":"56df857fc062921100c143e7","camStatus":"NOT_IMAGE","displayName":"Trần Quốc Hoàn - Phan Thúc Duyện"}},{"type":"Feature","geometry":{"type":"Point","coordinates":[106.703263521194,10.7852927046947]},"properties":{"id":"58af9a07bd82540010390c3b","camStatus":"NOT_IMAGE","displayName":"Tôn Đức Thắng - Lê Duẩn"}},{"type":"Feature","geometry":{"type":"Point","coordinates":[106.683501005173,10.7688614646947]},"properties":{"id":"63ae75debfd3d90017e8f082","camStatus":"UP","displayName":"Cao Thắng – Võ Văn Tần 1"}},{"type":"Feature","geometry":{"type":"Point","coordinates":[106.658180952072,10.8366042431825]},"properties":{"id":"5a824dc05058170011f6eab2","camStatus":"UP","displayName":"Quang Trung - Lê Văn Thọ (1)"}},{"type":"Feature","geometry":{"type":"Point","coordinates":[106.669499874115,10.7547007899372]},"properties":{"id":"5d8cd49f766c880017188944","camStatus":"UP","displayName":"Nguyễn Tri Phương - Nguyễn Trãi"}},{"type":"Feature","geometry":{"type":"Point","coordinates":[106.718916893005,10.8495545656016]},"properties":{"id":"5a606c078576340017d06624","camStatus":"UP","displayName":"Quốc lộ 13 - Hiệp Bình"}},{"type":"Feature","geometry":{"type":"Point","coordinates":[106.668459,10.768198]},"properties":{"id":"5deb576d1dc17d7c5515acf3","camStatus":"UP","displayName":"Ba Tháng Hai - Lý Thái Tổ"}},{"type":"Feature","geometry":{"type":"Point","coordinates":[106.697909832001,10.724748800308]},"properties":{"id":"591c67dea6bfb500119400a1","camStatus":"UP","displayName":"Cầu Rạch Đĩa (HCM)"}},{"type":"Feature","geometry":{"type":"Point","coordinates":[106.712254285812,10.809674419948]},"properties":{"id":"5a8254b05058170011f6eac3","camStatus":"UP","displayName":"Xô Viết Nghệ Tĩnh - Nguyễn Xí 1"}},{"type":"Feature","geometry":{"type":"Point","coordinates":[106.717768907547,10.757040746338]},"properties":{"id":"63ae77bfbfd3d90017e8f18f","camStatus":"UP","displayName":"Nguyễn Tất Thành - Cầu Tân Thuận 2"}},{"type":"Feature","geometry":{"type":"Point","coordinates":[106.700404,10.761236]},"properties":{"id":"5deb576d1dc17d7c5515ad1b","camStatus":"NOT_IMAGE","displayName":"Hoàng Diệu - Cầu Ông Lãnh"}},{"type":"Feature","geometry":{"type":"Point","coordinates":[106.655729,10.795418]},"properties":{"id":"5deb576d1dc17d7c5515ad0a","camStatus":"UP","displayName":"Hoàng Văn Thụ - Xuân Diệu"}},{"type":"Feature","geometry":{"type":"Point","coordinates":[106.688919067383,10.7444131987789]},"properties":{"id":"58744e3eb807da0011e33cb7","camStatus":"UP","displayName":"Dương Bá Trạc - Tạ Quang Bửu 1"}},{"type":"Feature","geometry":{"type":"Point","coordinates":[106.656190752983,10.7341621509602]},"properties":{"id":"58744dd9b807da0011e33cb5","camStatus":"NOT_IMAGE","displayName":"Quốc lộ 50 - Tạ Quang Bửu"}},{"type":"Feature","geometry":{"type":"Point","coordinates":[106.678592562675,10.8143956125566]},"properties":{"id":"56df8416c062921100c143e4","camStatus":"NOT_IMAGE","displayName":"Nút giao Nguyễn Thái Sơn 2 (Nguyễn Kiệm)"}},{"type":"Feature","geometry":{"type":"Point","coordinates":[106.673292517662,10.7493356862526]},"properties":{"id":"56de42f611f398ec0c481290","camStatus":"UP","displayName":"Võ Văn Kiệt - An Bình"}},{"type":"Feature","geometry":{"type":"Point","coordinates":[106.69091463089,10.7832744191822]},"properties":{"id":"58af8b69bd82540010390c28","camStatus":"NOT_IMAGE","displayName":"Nam Kỳ Khởi Nghĩa - Điện Biên Phủ 1"}},{"type":"Feature","geometry":{"type":"Point","coordinates":[106.587172150612,10.8837348196645]},"properties":{"id":"589b3ceeb3bf7600110283c3","camStatus":"UP","displayName":"QL 22 - Nguyễn Văn Bứa 1"}},{"type":"Feature","geometry":{"type":"Point","coordinates":[106.678490638733,10.861629788009]},"properties":{"id":"595dcab53dcfc400106f289d","camStatus":"UP","displayName":"Quốc lộ 1 - BQB Trước bến xe Ngã 4 Ga (hướng đi Bình Phước)"}},{"type":"Feature","geometry":{"type":"Point","coordinates":[106.687197089195,10.8038413260585]},"properties":{"id":"58ad7291bd82540010390bf9","camStatus":"UP","displayName":"Phan Đăng Lưu - Nguyễn Văn Đậu"}},{"type":"Feature","geometry":{"type":"Point","coordinates":[106.697491,10.790705]},"properties":{"id":"5deb576d1dc17d7c5515ad05","camStatus":"UP","displayName":"Điện Biên Phủ - Đinh Tiên Hoàng"}},{"type":"Feature","geometry":{"type":"Point","coordinates":[106.663309335709,10.8616403246391]},"properties":{"id":"595dd4f43dcfc400106f28ab","camStatus":"NOT_IMAGE","displayName":"Quốc lộ 1 - Cầu Bến Cát 1"}},{"type":"Feature","geometry":{"type":"Point","coordinates":[106.606779098511,10.8344440453534]},"properties":{"id":"5a607f078576340017d0666f","camStatus":"UP","displayName":"QL1-Phan Văn Hớn (H.Hoc Mon)"}},{"type":"Feature","geometry":{"type":"Point","coordinates":[106.67790055275,10.8306083386046]},"properties":{"id":"5a824ee15058170011f6eab6","camStatus":"UP","displayName":"Nguyễn Oanh - Phan Văn Trị (1)"}},{"type":"Feature","geometry":{"type":"Point","coordinates":[106.666420698166,10.7557179353779]},"properties":{"id":"5b632b60fd4edb0019c7dc12","camStatus":"UP","displayName":"Hồng Bàng - Ngô Quyền 1"}},{"type":"Feature","geometry":{"type":"Point","coordinates":[106.669188737869,10.8001000770077]},"properties":{"id":"587c8d97b807da0011e33d49","camStatus":"UP","displayName":"Hoàng Văn Thụ - Nguyễn Văn Trỗi 2"}},{"type":"Feature","geometry":{"type":"Point","coordinates":[106.645107865334,10.8018653200436]},"properties":{"id":"59414c883dcfc400106f260b","camStatus":"UP","displayName":"Cộng Hòa - Bình Giã"}},{"type":"Feature","geometry":{"type":"Point","coordinates":[106.714013814926,10.8262720340397]},"properties":{"id":"58affc6017139d0010f35cc8","camStatus":"UP","displayName":"Phạm Văn Đồng - Quốc Lộ 13 (1)"}},{"type":"Feature","geometry":{"type":"Point","coordinates":[106.748399734497,10.8747792130109]},"properties":{"id":"587463bab807da0011e33cd3","camStatus":"UP","displayName":"Quốc lộ 1 - Lê Thị Hoa"}},{"type":"Feature","geometry":{"type":"Point","coordinates":[106.707260012627,10.7652936908376]},"properties":{"id":"5deb576d1dc17d7c5515ad1c","camStatus":"UP","displayName":"Hoàng Diệu - Nguyễn Tất Thành"}},{"type":"Feature","geometry":{"type":"Point","coordinates":[106.700146794319,10.7654781410386]},"properties":{"id":"56de42f611f398ec0c481287","camStatus":"UP","displayName":"Võ Văn Kiệt - Ký Con"}},{"type":"Feature","geometry":{"type":"Point","coordinates":[106.658374071121,10.7980555437486]},"properties":{"id":"5d8cdb4b766c880017188966","camStatus":"UP","displayName":"Hoàng Văn Thụ - Út Tịch"}},{"type":"Feature","geometry":{"type":"Point","coordinates":[106.695485115051,10.8112288386645]},"properties":{"id":"63b66051bfd3d90017eaa4a3","camStatus":"UP","displayName":"Nơ Trang Long - Phan Văn Trị"}},{"type":"Feature","geometry":{"type":"Point","coordinates":[106.718230247498,10.8444440496827]},"properties":{"id":"62da3e390637a10017d706ff","camStatus":"UP","displayName":"Quốc Lộ 13 - Nguyễn Thị Thi 1"}},{"type":"Feature","geometry":{"type":"Point","coordinates":[106.689579,10.773652]},"properties":{"id":"5deb576d1dc17d7c5515ad10","camStatus":"NOT_IMAGE","displayName":"Cách Mạng Tháng Tám - Nguyễn Thị Minh Khai"}},{"type":"Feature","geometry":{"type":"Point","coordinates":[106.668410897255,10.7996311002478]},"properties":{"id":"56f11ac33ac17b11001c504c","camStatus":"UP","displayName":"Nguyễn Văn Trỗi - Hoàng Văn Thụ 1"}},{"type":"Feature","geometry":{"type":"Point","coordinates":[106.731228232384,10.7995520591487]},"properties":{"id":"631813ebc9eae60017a196b0","camStatus":"UP","displayName":"Cầu Sài Gòn 6 (Thủ Đức)"}},{"type":"Feature","geometry":{"type":"Point","coordinates":[106.664789915085,10.8091738427151]},"properties":{"id":"587475abb807da0011e33cea","camStatus":"UP","displayName":"Trường Sơn - Cửu Long"}},{"type":"Feature","geometry":{"type":"Point","coordinates":[106.686639,10.774969]},"properties":{"id":"5deb576d1dc17d7c5515ad0e","camStatus":"NOT_IMAGE","displayName":"Cách Mạng Tháng Tám - Nguyễn Đình Chiểu"}},{"type":"Feature","geometry":{"type":"Point","coordinates":[106.689658,10.777922]},"properties":{"id":"5deb576d1dc17d7c5515ad11","camStatus":"NOT_IMAGE","displayName":"Nguyễn Đình Chiểu - Trương Định"}},{"type":"Feature","geometry":{"type":"Point","coordinates":[106.653594374657,10.7928387592472]},"properties":{"id":"587478d8b807da0011e33cf3","camStatus":"NOT_IMAGE","displayName":"Nút giao Bảy Hiền 1 (Cách Mạng Tháng Tám)"}},{"type":"Feature","geometry":{"type":"Point","coordinates":[106.67782,10.773823]},"properties":{"id":"5deb576d1dc17d7c5515acf8","camStatus":"UP","displayName":"Ba Tháng Hai - Cao Thắng"}},{"type":"Feature","geometry":{"type":"Point","coordinates":[106.697738170624,10.7239898163825]},"properties":{"id":"591c6833a6bfb500119400a3","camStatus":"UP","displayName":"Cầu Rạch Đĩa (LA)"}},{"type":"Feature","geometry":{"type":"Point","coordinates":[106.595476269722,10.7470852656437]},"properties":{"id":"63ae7938bfd3d90017e8f226","camStatus":"UP","displayName":"Quốc Lộ 1- Công ty Pouyen 3 (Cổng)"}},{"type":"Feature","geometry":{"type":"Point","coordinates":[106.5673828125,10.6860381950503]},"properties":{"id":"63b664edbfd3d90017eaaa24","camStatus":"UP","displayName":"CT Trung Lương - Võ Trần Chí 2"}},{"type":"Feature","geometry":{"type":"Point","coordinates":[106.678351163864,10.8140847327392]},"properties":{"id":"56df83d8c062921100c143e3","camStatus":"UP","displayName":"Nút giao Nguyễn Thái Sơn 1 (Hồng Hà)"}},{"type":"Feature","geometry":{"type":"Point","coordinates":[106.590755581856,10.7672014274613]},"properties":{"id":"59ca308302eb490011a0a403","camStatus":"UP","displayName":"QL1 - Tân Tạo Chợ Đệm 1"}},{"type":"Feature","geometry":{"type":"Point","coordinates":[106.682181358337,10.7793063144528]},"properties":{"id":"5deb576d1dc17d7c5515acfd","camStatus":"UP","displayName":"Lý Chính Thắng - Nguyễn Thông"}},{"type":"Feature","geometry":{"type":"Point","coordinates":[106.672310829163,10.7976866831738]},"properties":{"id":"587ef2e4b807da0011e33d57","camStatus":"UP","displayName":"Nguyễn Văn Trỗi - Nguyễn Trọng Tuyển"}},{"type":"Feature","geometry":{"type":"Point","coordinates":[106.586925387383,10.8841088420888]},"properties":{"id":"589b3f7db3bf7600110283c6","camStatus":"UP","displayName":"QL 22 - Nguyễn Văn Bứa 2"}},{"type":"Feature","geometry":{"type":"Point","coordinates":[106.70676112175,10.775301268578]},"properties":{"id":"649da77ea6068200171a6dd4","camStatus":"UP","displayName":"Tôn Đức Thắng - Công trường Mê Linh"}},{"type":"Feature","geometry":{"type":"Point","coordinates":[106.577596664429,10.8125250596398]},"properties":{"id":"63b3c59fbfd3d90017e9ace8","camStatus":"UP","displayName":"Vĩnh Lộc - Quách Điêu"}},{"type":"Feature","geometry":{"type":"Point","coordinates":[106.71435713768,10.8254711543978]},"properties":{"id":"58b5510817139d0010f35d4e","camStatus":"UP","displayName":"Phạm Văn Đồng - Quốc Lộ 13 (2)"}},{"type":"Feature","geometry":{"type":"Point","coordinates":[106.62178337574,10.7736939654481]},"properties":{"id":"5a824c905058170011f6eab0","camStatus":"UP","displayName":"Nút giao Bốn Xã 2 (Hòa Bình)"}},{"type":"Feature","geometry":{"type":"Point","coordinates":[106.695957,10.780518]},"properties":{"id":"5deb576d1dc17d7c5515ad16","camStatus":"UP","displayName":"Nguyễn Thị Minh Khai - Pasteur"}},{"type":"Feature","geometry":{"type":"Point","coordinates":[106.658003926277,10.7708113380158]},"properties":{"id":"63ae7c73bfd3d90017e8f3ed","camStatus":"UP","displayName":"Lý Thường Kiệt - Tô Hiến Thành 2"}},{"type":"Feature","geometry":{"type":"Point","coordinates":[106.651110649109,10.8016071209638]},"properties":{"id":"586e1d4ef9fab7001111b0a2","camStatus":"UP","displayName":"Cộng Hòa - Đường C 18"}},{"type":"Feature","geometry":{"type":"Point","coordinates":[106.687964200974,10.7668272590757]},"properties":{"id":"63195512c9eae60017a1c279","camStatus":"UP","displayName":"Nguyễn Trãi - Cống Quỳnh 1"}},{"type":"Feature","geometry":{"type":"Point","coordinates":[106.596806645393,10.7958581819231]},"properties":{"id":"59ca2ecb02eb490011a0a3f6","camStatus":"NOT_IMAGE","displayName":"QL1 - Trạm thu phí AS-AL 1"}},{"type":"Feature","geometry":{"type":"Point","coordinates":[106.647881269455,10.7747690150491]},"properties":{"id":"5d8cdc9d766c880017188970","camStatus":"UP","displayName":"Lạc Long Quân - Âu Cơ"}},{"type":"Feature","geometry":{"type":"Point","coordinates":[106.75607085228,10.793987513509]},"properties":{"id":"58d8ec0adc195800111e042b","camStatus":"NOT_IMAGE","displayName":"Cao tốc LTDG - Cầu Bà Dạt 1"}},{"type":"Feature","geometry":{"type":"Point","coordinates":[106.682245731354,10.8613452988547]},"properties":{"id":"595dc5ac3dcfc400106f2898","camStatus":"NOT_IMAGE","displayName":"Quốc lộ 1 - BQB Đường dẫn cầu vượt Ngã 4 Ga (hướng đi An Sương)"}},{"type":"Feature","geometry":{"type":"Point","coordinates":[106.712415218353,10.8102803807443]},"properties":{"id":"5a8254f25058170011f6eac5","camStatus":"UP","displayName":"Xô Viết Nghệ Tĩnh - Nguyễn Xí 2"}},{"type":"Feature","geometry":{"type":"Point","coordinates":[106.658336520195,10.7704951431996]},"properties":{"id":"63ae7c53bfd3d90017e8f3d8","camStatus":"UP","displayName":"Lý Thường Kiệt - Tô Hiến Thành 1"}},{"type":"Feature","geometry":{"type":"Point","coordinates":[106.666241,10.755881]},"properties":{"id":"5deb576d1dc17d7c5515ad20","camStatus":"UP","displayName":"Hồng Bàng - Ngô Quyền 2"}},{"type":"Feature","geometry":{"type":"Point","coordinates":[106.630790233612,10.8199228965258]},"properties":{"id":"5874796db807da0011e33cf7","camStatus":"UP","displayName":"Trường Chinh - Tây Thạnh 1"}},{"type":"Feature","geometry":{"type":"Point","coordinates":[106.681336,10.777664]},"properties":{"id":"5deb576d1dc17d7c5515acfa","camStatus":"NOT_IMAGE","displayName":"Nút giao Công Trường Dân Chủ"}},{"type":"Feature","geometry":{"type":"Point","coordinates":[106.723519563675,10.8659497751896]},"properties":{"id":"58746536b807da0011e33cdc","camStatus":"UP","displayName":"Cầu vượt Bình Phước 1"}},{"type":"Feature","geometry":{"type":"Point","coordinates":[106.703526377678,10.7742209510263]},"properties":{"id":"584e80a761cfea0012cf6989","camStatus":"NOT_IMAGE","displayName":"Nguyễn Huệ 24"}},{"type":"Feature","geometry":{"type":"Point","coordinates":[106.689493060112,10.8261245037402]},"properties":{"id":"5a6060a88576340017d0660d","camStatus":"NOT_IMAGE","displayName":"Nguyễn Thái Sơn - Phan Văn Trị  1"}},{"type":"Feature","geometry":{"type":"Point","coordinates":[106.716492176056,10.7893186959144]},"properties":{"id":"63b65f33bfd3d90017eaa405","camStatus":"UP","displayName":"Nguyễn Hữu Cảnh - Ngô Tất Tố 3 (Nhánh chính cầu Thủ Thiêm 1)"}},{"type":"Feature","geometry":{"type":"Point","coordinates":[106.702639,10.770674]},"properties":{"id":"5deb576d1dc17d7c5515ad1e","camStatus":"UP","displayName":"Pasteur - Hàm Nghi"}},{"type":"Feature","geometry":{"type":"Point","coordinates":[106.596280932426,10.8883494860312]},"properties":{"id":"5a6061868576340017d06611","camStatus":"NOT_IMAGE","displayName":"Quang Trung - Bà Triệu"}},{"type":"Feature","geometry":{"type":"Point","coordinates":[106.662359833717,10.7987300304856]},"properties":{"id":"5875cb72b807da0011e33d0c","camStatus":"NOT_IMAGE","displayName":"Lê Văn Sỹ - Nguyễn Trọng Tuyển"}},{"type":"Feature","geometry":{"type":"Point","coordinates":[106.607385277748,10.8551338847726]},"properties":{"id":"589b3705b3bf7600110283bd","camStatus":"UP","displayName":"QL 22 - Nguyễn Ảnh Thủ 1"}},{"type":"Feature","geometry":{"type":"Point","coordinates":[106.706036925316,10.7675070857977]},"properties":{"id":"63ae7759bfd3d90017e8f162","camStatus":"UP","displayName":"Nguyễn Tất Thành - Cầu Khánh Hội"}},{"type":"Feature","geometry":{"type":"Point","coordinates":[106.703810691834,10.7632541910898]},"properties":{"id":"63ae7709bfd3d90017e8f135","camStatus":"UP","displayName":"Hoàng Diệu - Đoàn Văn Bơ 1"}},{"type":"Feature","geometry":{"type":"Point","coordinates":[106.665605306625,10.759206770879]},"properties":{"id":"649da419a6068200171a6c90","camStatus":"UP","displayName":"Nguyễn Chí Thanh - Ngô Quyền"}},{"type":"Feature","geometry":{"type":"Point","coordinates":[106.596463322639,10.6966335007055]},"properties":{"id":"58afccadbd82540010390c3f","camStatus":"UP","displayName":"Quốc lộ 1 - Nguyễn Hữu Trí 1"}},{"type":"Feature","geometry":{"type":"Point","coordinates":[106.68172,10.765059]},"properties":{"id":"5deb576d1dc17d7c5515acf7","camStatus":"UP","displayName":"Nút giao Ngã sáu Cộng Hòa"}},{"type":"Feature","geometry":{"type":"Point","coordinates":[106.71106338501,10.8016545453012]},"properties":{"id":"5d9ddd49766c880017188c94","camStatus":"UP","displayName":"Nút giao Hàng Xanh 1 (Viện Máy tính)"}},{"type":"Feature","geometry":{"type":"Point","coordinates":[106.702968478203,10.8230474266509]},"properties":{"id":"5d8cd767766c880017188950","camStatus":"UP","displayName":"Phạm Văn Đồng - Nguyễn Xí (hướng đi Sân bay)"}},{"type":"Feature","geometry":{"type":"Point","coordinates":[106.632431745529,10.8529158676222]},"properties":{"id":"595f8d813dcfc400106f28f2","camStatus":"NOT_IMAGE","displayName":"Quốc lộ 1 - Quang Trung 2 (hướng đi An Sương)"}},{"type":"Feature","geometry":{"type":"Point","coordinates":[106.724211573601,10.8647433460363]},"properties":{"id":"5874656eb807da0011e33cde","camStatus":"UP","displayName":"Cầu vượt Bình Phước 2"}},{"type":"Feature","geometry":{"type":"Point","coordinates":[106.719925403595,10.7320855467281]},"properties":{"id":"5abbb6d698d8fc001102dfc8","camStatus":"UP","displayName":"Nguyễn Văn Linh - Nguyễn Lương Bằng (1)"}},{"type":"Feature","geometry":{"type":"Point","coordinates":[106.664655804634,10.7968909966773]},"properties":{"id":"587c87e8b807da0011e33d45","camStatus":"NOT_IMAGE","displayName":"Lê Văn Sỹ - Phạm Văn Hai"}},{"type":"Feature","geometry":{"type":"Point","coordinates":[106.652623414993,10.7688351149688]},"properties":{"id":"5d8cdd26766c880017188974","camStatus":"UP","displayName":"Nút giao Lê Đại Hành 2 (Lê Đại Hành)"}},{"type":"Feature","geometry":{"type":"Point","coordinates":[106.650842428207,10.7442498171975]},"properties":{"id":"56de42f611f398ec0c481296","camStatus":"NOT_IMAGE","displayName":"Võ Văn Kiệt - Cao Văn Lầu"}},{"type":"Feature","geometry":{"type":"Point","coordinates":[106.692835092545,10.7814721788992]},"properties":{"id":"5deb576d1dc17d7c5515ad03","camStatus":"NOT_IMAGE","displayName":"Nam Kỳ Khởi Nghĩa - Nguyễn Đình Chiểu"}},{"type":"Feature","geometry":{"type":"Point","coordinates":[106.75255715847,10.7840648720405]},"properties":{"id":"5874461db807da0011e33c9c","camStatus":"NOT_IMAGE","displayName":"Đồng Văn Cống - Cầu Giồng Ông Tố 2"}},{"type":"Feature","geometry":{"type":"Point","coordinates":[106.706455349922,10.7667745592657]},"properties":{"id":"63ae777cbfd3d90017e8f177","camStatus":"UP","displayName":"Nguyễn Tất Thành - Đoàn Như Hài"}},{"type":"Feature","geometry":{"type":"Point","coordinates":[106.703531742096,10.7887074232314]},"properties":{"id":"631828cac9eae60017a19f50","camStatus":"IMAGE_EXPIRED","displayName":"Nguyễn Thị Minh Khai - Nguyễn Bỉnh Khiêm"}},{"type":"Feature","geometry":{"type":"Point","coordinates":[106.727542877197,10.7990251179569]},"properties":{"id":"63b3c2fbbfd3d90017e9abbf","camStatus":"UP","displayName":"Cầu Sài Gòn 1"}},{"type":"Feature","geometry":{"type":"Point","coordinates":[106.625425815582,10.8269833398213]},"properties":{"id":"58d7c2e6c1e33c00112b321e","camStatus":"UP","displayName":"Trường Chinh - Phan Văn Hớn 1 (Q12-HM)"}},{"type":"Feature","geometry":{"type":"Point","coordinates":[106.706600189209,10.7998787622235]},"properties":{"id":"5d9dddb9766c880017188c96","camStatus":"UP","displayName":"Nút giao Hàng Xanh 2 (ĐH Hồng Bàng)"}},{"type":"Feature","geometry":{"type":"Point","coordinates":[106.643267869949,10.7550275416962]},"properties":{"id":"5d8cd372766c880017188940","camStatus":"UP","displayName":"Nút giao Cây Gõ 2 (Minh Phụng)"}},{"type":"Feature","geometry":{"type":"Point","coordinates":[106.579318642616,10.8135578170586]},"properties":{"id":"5ad06a0d98d8fc001102e27b","camStatus":"UP","displayName":"Vĩnh Lộc - Nguyễn Thị Tú 2"}},{"type":"Feature","geometry":{"type":"Point","coordinates":[106.591436862946,10.769962881176]},"properties":{"id":"5a60839c8576340017d0667c","camStatus":"UP","displayName":"QL1 - Hương Lộ 2 (2)"}},{"type":"Feature","geometry":{"type":"Point","coordinates":[106.711615920067,10.8068184838962]},"properties":{"id":"63b65f64bfd3d90017eaa41f","camStatus":"UP","displayName":"Xô Viết Nghệ Tĩnh - Đường D5"}},{"type":"Feature","geometry":{"type":"Point","coordinates":[106.731684207916,10.7131108376067]},"properties":{"id":"63bd1e95bfd3d90017ec3cd5","camStatus":"UP","displayName":"Nguyễn Lương Bằng - Hoàng Quốc Việt"}},{"type":"Feature","geometry":{"type":"Point","coordinates":[106.64261341095,10.7667007795163]},"properties":{"id":"63ae7cd3bfd3d90017e8f408","camStatus":"UP","displayName":"Lạc Long Quân - Ông Ích Khiêm"}},{"type":"Feature","geometry":{"type":"Point","coordinates":[106.703445911407,10.8228313977916]},"properties":{"id":"5d8cd70e766c88001718894e","camStatus":"UP","displayName":"Phạm Văn Đồng - Nguyễn Xí (hướng đi Thủ Đức)"}},{"type":"Feature","geometry":{"type":"Point","coordinates":[106.656072735786,10.7443815765443]},"properties":{"id":"58b555ac17139d0010f35d59","camStatus":"UP","displayName":"Tùng Thiện Vương - Cầu Nhị Thiên Đường"}},{"type":"Feature","geometry":{"type":"Point","coordinates":[106.649812459946,10.8617509592331]},"properties":{"id":"595ddc123dcfc400106f28ba","camStatus":"NOT_IMAGE","displayName":"Quốc lộ 1 - Cầu vượt Tân Thới Hiệp 1"}},{"type":"Feature","geometry":{"type":"Point","coordinates":[106.712136268616,10.7604452450726]},"properties":{"id":"5b19d2f9af4ff60011d6ea4f","camStatus":"NOT_IMAGE","displayName":"Nguyễn Tất Thành - Xóm Chiếu"}},{"type":"Feature","geometry":{"type":"Point","coordinates":[106.709464788437,10.8028664980496]},"properties":{"id":"5a606a958576340017d06621","camStatus":"UP","displayName":"Đinh Bộ Lĩnh - Bạch Đằng 3"}},{"type":"Feature","geometry":{"type":"Point","coordinates":[106.713917255402,10.7592436616732]},"properties":{"id":"63b6617ebfd3d90017eaa50b","camStatus":"UP","displayName":"Nguyễn Tất Thành - Cảng SG (Q7-Q4)"}},{"type":"Feature","geometry":{"type":"Point","coordinates":[106.618419885635,10.8454766970536]},"properties":{"id":"595f91653dcfc400106f28f6","camStatus":"NOT_IMAGE","displayName":"Quốc lộ 1 - Cầu vượt An Sương (Song hành QL 22)"}},{"type":"Feature","geometry":{"type":"Point","coordinates":[106.600669026375,10.7223980522437]},"properties":{"id":"56de42f611f398ec0c48129d","camStatus":"UP","displayName":"Quốc lộ 1 - Trần Đại Nghĩa"}},{"type":"Feature","geometry":{"type":"Point","coordinates":[106.645520925522,10.7413616378753]},"properties":{"id":"56de42f611f398ec0c481292","camStatus":"UP","displayName":"Võ Văn Kiệt - Phạm Phú Thứ"}},{"type":"Feature","geometry":{"type":"Point","coordinates":[106.687554,10.791464]},"properties":{"id":"5deb576d1dc17d7c5515acff","camStatus":"NOT_IMAGE","displayName":"Hai Bà Trưng - Lý Chính Thắng"}},{"type":"Feature","geometry":{"type":"Point","coordinates":[106.687325835228,10.7800493499976]},"properties":{"id":"5deb576d1dc17d7c5515acfb","camStatus":"UP","displayName":"Điện Biên Phủ - Trương Định"}},{"type":"Feature","geometry":{"type":"Point","coordinates":[106.752707362175,10.8049847689326]},"properties":{"id":"56de42f611f398ec0c48127d","camStatus":"UP","displayName":"Mai Chí Thọ - Xa lộ Hà Nội (Cát Lái cầu A)"}},{"type":"Feature","geometry":{"type":"Point","coordinates":[106.660031676292,10.7505847415039]},"properties":{"id":"56de42f611f398ec0c48128d","camStatus":"UP","displayName":"Hải Thượng Lãn Ông - Cầu Chà Và"}},{"type":"Feature","geometry":{"type":"Point","coordinates":[106.578095555305,10.6948360147088]},"properties":{"id":"591c6bdba6bfb500119400a7","camStatus":"UP","displayName":"Cầu Cái Tâm (Hướng HCM)"}},{"type":"Feature","geometry":{"type":"Point","coordinates":[106.611746549606,10.8395020450536]},"properties":{"id":"59ca2cac02eb490011a0a3e9","camStatus":"UP","displayName":"Cầu vượt An Sương 2"}},{"type":"Feature","geometry":{"type":"Point","coordinates":[106.754032373428,10.7496677141024]},"properties":{"id":"5aab1f852d266a0017e5afd4","camStatus":"UP","displayName":"Võ Chí Công - Cầu Phú Mỹ"}},{"type":"Feature","geometry":{"type":"Point","coordinates":[106.74354493618,10.840819218446]},"properties":{"id":"5d8cda2e766c88001718895e","camStatus":"UP","displayName":"Phạm Văn Đồng - Kha Vạn Cân (hướng đi Quốc lộ 1)"}},{"type":"Feature","geometry":{"type":"Point","coordinates":[106.635918617249,10.8037728247342]},"properties":{"id":"586e25e1f9fab7001111b0ae","camStatus":"UP","displayName":"Trường Chinh - Tân Kỳ Tân Quý"}},{"type":"Feature","geometry":{"type":"Point","coordinates":[106.713750958443,10.8015491578746]},"properties":{"id":"5d9dde8e766c880017188c9a","camStatus":"NOT_IMAGE","displayName":"Nút giao Hàng Xanh 4 (Cầu Văn Thánh - Hàng Xanh)"}},{"type":"Feature","geometry":{"type":"Point","coordinates":[106.709132194519,10.8007429428369]},"properties":{"id":"5d9ddf0f766c880017188c9e","camStatus":"NOT_IMAGE","displayName":"Nút giao Hàng Xanh 6 (Cầu Điện Biên Phủ - Hàng Xanh)"}},{"type":"Feature","geometry":{"type":"Point","coordinates":[106.698489189148,10.7596389198989]},"properties":{"id":"63ae76ddbfd3d90017e8f11b","camStatus":"UP","displayName":"Khánh Hội -  Hoàng Diệu"}},{"type":"Feature","geometry":{"type":"Point","coordinates":[106.701048016548,10.7779625221064]},"properties":{"id":"5deb576d1dc17d7c5515ad14","camStatus":"NOT_IMAGE","displayName":"Lý Tự Trọng - Pasteur 2"}},{"type":"Feature","geometry":{"type":"Point","coordinates":[106.695023775101,10.8053483512381]},"properties":{"id":"63b66035bfd3d90017eaa48e","camStatus":"UP","displayName":"Nơ Trang Long - Nguyễn Huy Lượng (Bệnh viện Ung Bướu)"}},{"type":"Feature","geometry":{"type":"Point","coordinates":[106.727795004845,10.7545321437295]},"properties":{"id":"585b284ac3f96200127dc500","camStatus":"UP","displayName":"Huỳnh Tấn Phát - Lưu Trọng Lư 1"}},{"type":"Feature","geometry":{"type":"Point","coordinates":[106.659994125366,10.7490827124077]},"properties":{"id":"56de42f611f398ec0c481295","camStatus":"UP","displayName":"Võ Văn Kiệt - Cầu Chà Và 1 (dạ cầu)"}},{"type":"Feature","geometry":{"type":"Point","coordinates":[106.690008044243,10.7860304558102]},"properties":{"id":"5deb576d1dc17d7c5515ad04","camStatus":"NOT_IMAGE","displayName":"Võ Thị Sáu - Pasteur"}},{"type":"Feature","geometry":{"type":"Point","coordinates":[106.677117347717,10.7284488196731]},"properties":{"id":"5a8278f35058170011f6eaed","camStatus":"UP","displayName":"Nguyễn Văn Linh - Phạm Hùng 1"}},{"type":"Feature","geometry":{"type":"Point","coordinates":[106.590557098389,10.7661000008843]},"properties":{"id":"5a6084208576340017d0667e","camStatus":"UP","displayName":"QL1 - Tân Tạo Chợ Đệm 2"}},{"type":"Feature","geometry":{"type":"Point","coordinates":[106.700313091278,10.7289864255581]},"properties":{"id":"5a825ab55058170011f6ead2","camStatus":"UP","displayName":"Nguyễn Văn Linh - Nguyễn Hữu Thọ (2)"}},{"type":"Feature","geometry":{"type":"Point","coordinates":[106.6783618927,10.8062968247449]},"properties":{"id":"586e20a0f9fab7001111b0a7","camStatus":"UP","displayName":"Nguyễn Kiệm - Hồ Văn Huê"}},{"type":"Feature","geometry":{"type":"Point","coordinates":[106.685357093811,10.7563925169909]},"properties":{"id":"5b0b7bbe0e517b00119fd806","camStatus":"NOT_IMAGE","displayName":"Nguyễn Văn Cừ - Trần Hưng Đạo 2"}},{"type":"Feature","geometry":{"type":"Point","coordinates":[106.711433529854,10.8168141411482]},"properties":{"id":"5a8255a55058170011f6eac7","camStatus":"UP","displayName":"BX Miền Đông - Đinh Bộ Lĩnh 1"}},{"type":"Feature","geometry":{"type":"Point","coordinates":[106.702040433884,10.7675334356397]},"properties":{"id":"56de42f611f398ec0c481294","camStatus":"UP","displayName":"Đường hầm - Đầu Quận 1"}},{"type":"Feature","geometry":{"type":"Point","coordinates":[106.751446723938,10.792627978172]},"properties":{"id":"56de42f611f398ec0c481280","camStatus":"UP","displayName":"Mai Chí Thọ - Lương Định Của 2"}},{"type":"Feature","geometry":{"type":"Point","coordinates":[106.697963476181,10.8024818353159]},"properties":{"id":"587ed91db807da0011e33d4e","camStatus":"UP","displayName":"Phan Đăng Lưu - Đinh Tiên Hoàng 2"}},{"type":"Feature","geometry":{"type":"Point","coordinates":[106.692545413971,10.7587798913611]},"properties":{"id":"56de42f611f398ec0c48128a","camStatus":"UP","displayName":"Võ Văn Kiệt - Trần Đình Xu 2"}},{"type":"Feature","geometry":{"type":"Point","coordinates":[106.695173978806,10.7794696770349]},"properties":{"id":"58b5752e17139d0010f35d5f","camStatus":"UP","displayName":"Nam Kỳ Khởi Nghĩa -Nguyễn Thị Minh Khai 2"}},{"type":"Feature","geometry":{"type":"Point","coordinates":[106.727376580238,10.7757228548636]},"properties":{"id":"58175c81edeb6c0012a2d5c2","camStatus":"UP","displayName":"Mai Chí Thọ - Trần Não 2"}},{"type":"Feature","geometry":{"type":"Point","coordinates":[106.723358631134,10.7980818909152]},"properties":{"id":"631812e6c9eae60017a19567","camStatus":"UP","displayName":"Cầu Sài Gòn 11 (Bình Thạnh)"}},{"type":"Feature","geometry":{"type":"Point","coordinates":[106.685453653336,10.767891793263]},"properties":{"id":"63ae75a3bfd3d90017e8f051","camStatus":"UP","displayName":"Cống Quỳnh - Phạm Viết Chánh"}},{"type":"Feature","geometry":{"type":"Point","coordinates":[106.719989776611,10.7315690287392]},"properties":{"id":"5abbb77298d8fc001102dfce","camStatus":"NOT_IMAGE","displayName":"Nguyễn Văn Linh - Nguyễn Lương Bằng (2)"}},{"type":"Feature","geometry":{"type":"Point","coordinates":[106.730353832245,10.7375247437985]},"properties":{"id":"63bd1f48bfd3d90017ec3d19","camStatus":"UP","displayName":"Huỳnh Tấn Phát - Nguyễn Thị Thập"}},{"type":"Feature","geometry":{"type":"Point","coordinates":[106.700028777123,10.7767662783818]},"properties":{"id":"5b25a1dcf13cba001124e710","camStatus":"NOT_IMAGE","displayName":"Lý Tự Trọng - Pasteur 1"}},{"type":"Feature","geometry":{"type":"Point","coordinates":[106.732848286629,10.8372522994913]},"properties":{"id":"5d8cd886766c880017188956","camStatus":"UP","displayName":"Phạm Văn Đồng - Hiệp Bình (hướng đi Thủ Đức)"}},{"type":"Feature","geometry":{"type":"Point","coordinates":[106.699614,10.781431]},"properties":{"id":"5deb576d1dc17d7c5515ad18","camStatus":"UP","displayName":"Hai Bà Trưng - Lê Duẩn"}},{"type":"Feature","geometry":{"type":"Point","coordinates":[106.724517345428,10.7980555437486]},"properties":{"id":"58abc0cbbd82540010390ba6","camStatus":"UP","displayName":"Cầu Sài Gòn 3 (Dạ cầu Bình Thạnh)"}},{"type":"Feature","geometry":{"type":"Point","coordinates":[106.672665,10.797381]},"properties":{"id":"5deb576d1dc17d7c5515ad07","camStatus":"UP","displayName":"Nguyễn Văn Trỗi - Trương Quốc Dung"}},{"type":"Feature","geometry":{"type":"Point","coordinates":[106.664478778839,10.8076721060064]},"properties":{"id":"5d8cdc1d766c88001718896c","camStatus":"UP","displayName":"Trường Sơn - Hậu Giang"}},{"type":"Feature","geometry":{"type":"Point","coordinates":[106.712779998779,10.8142322689639]},"properties":{"id":"5a606c758576340017d06626","camStatus":"UP","displayName":"BX Miền Đông - Quốc Lộ 13 (1)"}},{"type":"Feature","geometry":{"type":"Point","coordinates":[106.721674203873,10.8036621687159]},"properties":{"id":"63b66008bfd3d90017eaa476","camStatus":"UP","displayName":"Ung Văn Khiêm - Nguyễn Văn Thương (D1)"}},{"type":"Feature","geometry":{"type":"Point","coordinates":[106.615458726883,10.8427001319976]},"properties":{"id":"59ca2cf302eb490011a0a3eb","camStatus":"UP","displayName":"Cầu vượt An Sương 3"}},{"type":"Feature","geometry":{"type":"Point","coordinates":[106.655665040016,10.7199365991593]},"properties":{"id":"5a82628e5058170011f6eadb","camStatus":"UP","displayName":"Nguyễn Văn Linh - Quốc lộ 50 (1)"}},{"type":"Feature","geometry":{"type":"Point","coordinates":[106.69497013092,10.8986321383696]},"properties":{"id":"589b46b3b3bf7600110283d0","camStatus":"NOT_IMAGE","displayName":"Hà Huy Giáp - Cầu Phú Long 2"}},{"type":"Feature","geometry":{"type":"Point","coordinates":[106.75500869751,10.8509770648006]},"properties":{"id":"5d8cd653766c88001718894c","camStatus":"NOT_IMAGE","displayName":"Kha Vạn Cân - Võ Văn Ngân"}},{"type":"Feature","geometry":{"type":"Point","coordinates":[106.695082783699,10.7797542439016]},"properties":{"id":"58af8eb2bd82540010390c30","camStatus":"NOT_IMAGE","displayName":"Nam Kỳ Khởi Nghĩa -Nguyễn Thị Minh Khai 1"}},{"type":"Feature","geometry":{"type":"Point","coordinates":[106.59831404686,10.7672172373829]},"properties":{"id":"5b0b7d240e517b00119fd809","camStatus":"NOT_IMAGE","displayName":"Hương Lộ 2 (Số 878)"}},{"type":"Feature","geometry":{"type":"Point","coordinates":[106.632506847382,10.8528104982269]},"properties":{"id":"595f8d233dcfc400106f28f0","camStatus":"UP","displayName":"Quốc lộ 1 - Quang Trung 1 (hướng đi Bình Phước)"}},{"type":"Feature","geometry":{"type":"Point","coordinates":[106.699846386909,10.7673753365528]},"properties":{"id":"5deb576d1dc17d7c5515ad1d","camStatus":"UP","displayName":"Nguyễn Công Trứ - Calmette 2"}},{"type":"Feature","geometry":{"type":"Point","coordinates":[106.656598448753,10.7621422099615]},"properties":{"id":"63ae7c12bfd3d90017e8f3c0","camStatus":"UP","displayName":"Ba Tháng Hai - Lê Đại Hành 2"}},{"type":"Feature","geometry":{"type":"Point","coordinates":[106.73014998436,10.8530844585776]},"properties":{"id":"5b0b835b0e517b00119fd80d","camStatus":"NOT_IMAGE","displayName":"Tam Bình (Số 81)"}},{"type":"Feature","geometry":{"type":"Point","coordinates":[106.720730066299,10.7974969832732]},"properties":{"id":"5b6c155aca0577001163fe36","camStatus":"NOT_IMAGE","displayName":"Nguyễn Hữu Cảnh 1 (Dạ cầu)"}},{"type":"Feature","geometry":{"type":"Point","coordinates":[106.642913818359,10.7544425503934]},"properties":{"id":"5d8cd2a3766c88001718893c","camStatus":"UP","displayName":"Nút giao Cây Gõ 1 (trên cầu)"}},{"type":"Feature","geometry":{"type":"Point","coordinates":[106.606307029724,10.8330109299002]},"properties":{"id":"59c8c17602eb490011a0a37e","camStatus":"NOT_IMAGE","displayName":"KCN Vĩnh Lộc -> Phan Văn Hớn"}},{"type":"Feature","geometry":{"type":"Point","coordinates":[106.653615832329,10.7931970867358]},"properties":{"id":"58747923b807da0011e33cf5","camStatus":"UP","displayName":"Nút giao Bảy Hiền 2 (Hoàng Văn Thụ)"}},{"type":"Feature","geometry":{"type":"Point","coordinates":[106.659564971924,10.7636125538021]},"properties":{"id":"63ae7af4bfd3d90017e8f32c","camStatus":"UP","displayName":"Ba Tháng Hai - Lý Thường Kiệt 2"}},{"type":"Feature","geometry":{"type":"Point","coordinates":[106.670937538147,10.7372717600591]},"properties":{"id":"5875d4f8b807da0011e33d1a","camStatus":"UP","displayName":"Tạ Quang Bửu - Phạm Hùng 1"}},{"type":"Feature","geometry":{"type":"Point","coordinates":[106.715140342712,10.8607025631008]},"properties":{"id":"595d92013dcfc400106f2877","camStatus":"UP","displayName":"Quốc Lộ 1A - Cầu Bình Phước"}},{"type":"Feature","geometry":{"type":"Point","coordinates":[106.595449447632,10.7894293572155]},"properties":{"id":"59ca2f4402eb490011a0a3f9","camStatus":"NOT_IMAGE","displayName":"QL1 - Tân Kỳ Tân Quý 2"}},{"type":"Feature","geometry":{"type":"Point","coordinates":[106.634953022003,10.8070661399436]},"properties":{"id":"586e1f18f9fab7001111b0a5","camStatus":"NOT_IMAGE","displayName":"Cộng Hòa - Trường Chinh"}},{"type":"Feature","geometry":{"type":"Point","coordinates":[106.707404851913,10.7927439077816]},"properties":{"id":"63b65f8dbfd3d90017eaa434","camStatus":"UP","displayName":"Xô Viết Nghệ Tĩnh - Phan Văn Hân (Cầu Thị Nghè)"}},{"type":"Feature","geometry":{"type":"Point","coordinates":[106.754863858223,10.7929019935409]},"properties":{"id":"5d9de3c2766c880017188cb3","camStatus":"UP","displayName":"Cao tốc LTDG - Cầu Bà Dạt 3"}},{"type":"Feature","geometry":{"type":"Point","coordinates":[106.660680770874,10.7890446772791]},"properties":{"id":"63ae7cfcbfd3d90017e8f422","camStatus":"UP","displayName":"Cách Mạng Tháng Tám – Phạm Văn Hai"}},{"type":"Feature","geometry":{"type":"Point","coordinates":[106.711969971657,10.8012804197692]},"properties":{"id":"5b0e1faacddcc80011ceb449","camStatus":"UP","displayName":"Nút giao Hàng Xanh 8 (HX-VT)"}},{"type":"Feature","geometry":{"type":"Point","coordinates":[106.709818840027,10.7953154258079]},"properties":{"id":"63b65fa9bfd3d90017eaa449","camStatus":"UP","displayName":"Xô Viết Nghệ Tĩnh - Nguyễn Văn Lạc"}},{"type":"Feature","geometry":{"type":"Point","coordinates":[106.700946092606,10.740497286869]},"properties":{"id":"56df8381c062921100c143e2","camStatus":"UP","displayName":"Nguyễn Hữu Thọ - Nguyễn Thị Thập 1"}},{"type":"Feature","geometry":{"type":"Point","coordinates":[106.669569611549,10.7535782368426]},"properties":{"id":"5d8cd1f9766c880017188938","camStatus":"UP","displayName":"Nguyễn Tri Phương - Trần Phú"}},{"type":"Feature","geometry":{"type":"Point","coordinates":[106.698709130287,10.8601177777294]},"properties":{"id":"595da2dd3dcfc400106f2885","camStatus":"UP","displayName":"Quốc lộ 1 - Đường 15 (2)"}},{"type":"Feature","geometry":{"type":"Point","coordinates":[106.645692586899,10.8600387525913]},"properties":{"id":"595f80e83dcfc400106f28e4","camStatus":"NOT_IMAGE","displayName":"Quốc lộ 1 - BQB Cầu vượt Tân Thới Hiệp B (hướng Bình Phước)"}},{"type":"Feature","geometry":{"type":"Point","coordinates":[106.674596,10.767428]},"properties":{"id":"5deb576d1dc17d7c5515acf5","camStatus":"UP","displayName":"Nút giao Ngã bảy Lý Thái Tổ"}},{"type":"Feature","geometry":{"type":"Point","coordinates":[106.677144169807,10.7802232516687]},"properties":{"id":"631955e7c9eae60017a1c30a","camStatus":"UP","displayName":"Cách Mạng Tháng Tám – Hòa Hưng"}},{"type":"Feature","geometry":{"type":"Point","coordinates":[106.689149737358,10.8262720340397]},"properties":{"id":"5a6060e08576340017d0660f","camStatus":"UP","displayName":"Nguyễn Thái Sơn - Phan Văn Trị 2"}},{"type":"Feature","geometry":{"type":"Point","coordinates":[106.607272624969,10.8343386694508]},"properties":{"id":"5a607ea98576340017d0666d","camStatus":"UP","displayName":"QL1-Phan Văn Hớn (Q12)"}},{"type":"Feature","geometry":{"type":"Point","coordinates":[106.672922372818,10.7711380723106]},"properties":{"id":"63ae7a26bfd3d90017e8f29a","camStatus":"UP","displayName":"Ba Tháng Hai - Lê Hồng Phong 2"}},{"type":"Feature","geometry":{"type":"Point","coordinates":[106.688092947006,10.7663318804982]},"properties":{"id":"63195556c9eae60017a1c2ba","camStatus":"UP","displayName":"Nguyễn Trãi - Cống Quỳnh 2"}},{"type":"Feature","geometry":{"type":"Point","coordinates":[106.666592359543,10.8049689609963]},"properties":{"id":"58df4adedc195800111e04b4","camStatus":"UP","displayName":"Phổ Quang - Huỳnh Lan Khanh"}},{"type":"Feature","geometry":{"type":"Point","coordinates":[106.591292023659,10.7702369171868]},"properties":{"id":"59ca301902eb490011a0a400","camStatus":"UP","displayName":"QL1 - Hương Lộ 2 (1)"}},{"type":"Feature","geometry":{"type":"Point","coordinates":[106.600910425186,10.8161291568165]},"properties":{"id":"584e738361cfea0012cf6951","camStatus":"UP","displayName":"Quốc lộ 1 - Nguyễn Thị Tú"}},{"type":"Feature","geometry":{"type":"Point","coordinates":[106.710022687912,10.8030720025958]},"properties":{"id":"5a8253615058170011f6eabf","camStatus":"UP","displayName":"Đinh Bộ Lĩnh - Bạch Đằng 1"}},{"type":"Feature","geometry":{"type":"Point","coordinates":[106.691731,10.776014]},"properties":{"id":"5deb576d1dc17d7c5515ad0f","camStatus":"NOT_IMAGE","displayName":"Nguyễn Thị Minh Khai - Trương Định"}},{"type":"Feature","geometry":{"type":"Point","coordinates":[106.598539352417,10.8041364085074]},"properties":{"id":"59ca2e6002eb490011a0a3f3","camStatus":"NOT_IMAGE","displayName":"QL1 - TTDK 50-07V"}},{"type":"Feature","geometry":{"type":"Point","coordinates":[106.711294054985,10.8001422321862]},"properties":{"id":"5d9dde1f766c880017188c98","camStatus":"UP","displayName":"Nút giao Hàng Xanh 3 (Cầu Thị Nghè - Hàng Xanh)"}},{"type":"Feature","geometry":{"type":"Point","coordinates":[106.718080043793,10.795078299042]},"properties":{"id":"5b6c1618ca0577001163fe3c","camStatus":"NOT_IMAGE","displayName":"Nguyễn Hữu Cảnh 2 (Chân cầu)"}},{"type":"Feature","geometry":{"type":"Point","coordinates":[106.669124,10.76009]},"properties":{"id":"5deb576d1dc17d7c5515ad22","camStatus":"NOT_IMAGE","displayName":"Nút giao Ngã sáu Nguyễn Tri Phương"}},{"type":"Feature","geometry":{"type":"Point","coordinates":[106.568777561188,10.684773059211]},"properties":{"id":"63b664d2bfd3d90017eaaa0f","camStatus":"UP","displayName":"CT Trung Lương - Võ Trần Chí 1"}},{"type":"Feature","geometry":{"type":"Point","coordinates":[106.665642857552,10.8015070028935]},"properties":{"id":"56df85bdc062921100c143e8","camStatus":"NOT_IMAGE","displayName":"Phan Đình Giót - Phan Thúc Duyện"}},{"type":"Feature","geometry":{"type":"Point","coordinates":[106.576287746429,10.6859643956044]},"properties":{"id":"58d7b5a7c1e33c00112b320a","camStatus":"UP","displayName":"Nút giao Chợ Đệm 1 (CT Trung Lương - Bùi Thanh Khiết)"}},{"type":"Feature","geometry":{"type":"Point","coordinates":[106.677471399307,10.7993728992472]},"properties":{"id":"5d8cdb9f766c880017188968","camStatus":"UP","displayName":"Hoàng Văn Thụ - Trần Huy Liệu"}},{"type":"Feature","geometry":{"type":"Point","coordinates":[106.593507528305,10.7499628496621]},"properties":{"id":"5a6085fb8576340017d06686","camStatus":"UP","displayName":"QL1-Tỉnh lộ 10B (1)"}},{"type":"Feature","geometry":{"type":"Point","coordinates":[106.709395051003,10.8030930799773]},"properties":{"id":"5a8253bc5058170011f6eac1","camStatus":"UP","displayName":"Đinh Bộ Lĩnh - Bạch Đằng 2"}},{"type":"Feature","geometry":{"type":"Point","coordinates":[106.602809429169,10.7342095859156]},"properties":{"id":"59ca31d602eb490011a0a40b","camStatus":"NOT_IMAGE","displayName":"QL1 - Hồ Học Lãm"}},{"type":"Feature","geometry":{"type":"Point","coordinates":[106.738277077675,10.8010116814233]},"properties":{"id":"587c782db807da0011e33d3b","camStatus":"UP","displayName":"Xa lộ HN - Thảo Điền"}},{"type":"Feature","geometry":{"type":"Point","coordinates":[106.656131744385,10.7778307774358]},"properties":{"id":"63ae7d29bfd3d90017e8f437","camStatus":"UP","displayName":"Lý Thường Kiệt - Bắc Hải"}},{"type":"Feature","geometry":{"type":"Point","coordinates":[106.666474342346,10.7563292750288]},"properties":{"id":"5deb576d1dc17d7c5515ad1f","camStatus":"UP","displayName":"Hùng Vương - Ngô Gia Tự"}},{"type":"Feature","geometry":{"type":"Point","coordinates":[106.606961488724,10.8342965190794]},"properties":{"id":"59ca2d9d02eb490011a0a3f0","camStatus":"UP","displayName":"QL1 - Phan Văn Hớn 2"}},{"type":"Feature","geometry":{"type":"Point","coordinates":[106.713198423386,10.8172620146729]},"properties":{"id":"5a8256df5058170011f6eacb","camStatus":"UP","displayName":"BX Miền Đông - Quốc Lộ 13 (2)"}},{"type":"Feature","geometry":{"type":"Point","coordinates":[106.684305667877,10.7801810936971]},"properties":{"id":"5deb576d1dc17d7c5515acfc","camStatus":"UP","displayName":"Võ Thị Sáu - Bà Huyện Thanh Quan"}},{"type":"Feature","geometry":{"type":"Point","coordinates":[106.674934029579,10.7994466709843]},"properties":{"id":"587c8c20b807da0011e33d47","camStatus":"UP","displayName":"Hoàng Văn Thụ - Hồ Văn Huê"}},{"type":"Feature","geometry":{"type":"Point","coordinates":[106.669129729271,10.7463895818732]},"properties":{"id":"58744fb0b807da0011e33cc0","camStatus":"UP","displayName":"Hưng Phú - Chánh Hưng 2"}},{"type":"Feature","geometry":{"type":"Point","coordinates":[106.650649309158,10.7536098581137]},"properties":{"id":"5822f23aedeb6c0012a2d6a8","camStatus":"UP","displayName":"Hồng Bàng - Nguyễn Thị Nhỏ"}},{"type":"Feature","geometry":{"type":"Point","coordinates":[106.740009784698,10.7817936319045]},"properties":{"id":"649da495a6068200171a6cb6","camStatus":"UP","displayName":"Mai Chí Thọ - Trần Quý Kiên (3)"}}]}